"stn_code","stn_name","zone_code","division_code","latitude","longitude"
BIRD,BHIWANDI ROAD,CR,CSMT,"19.26849868","73.0465812"
MGTD,Meghpurtitodi                                               ,WR,RJT,"22.13978865","69.45708933"
TKD,Tugalakabad,NR,DLI,"28.503685","77.29699139"
PVN,Puvanur                                                     ,SR,TPJ,"11.60086317","79.31602233"
ARVI,Arvi,CR,NGP,"20.99281111","78.22326111"
MIPR,"M/S INDIAN PETRO CHEMICALS CORP. LTD SDG, RANOLI            ",WR,BRC,"22.401348","73.117104"
KUM,Kuram,CR,BSL,"20.80970206","77.59028873"
NKE,Narkatiaganj Jn.                                            ,ECR,SPJ,"27.104772","84.463476"
SKF,Sakhoti Tanda,NR,DLI,"29.19285333","77.71875"
STP,Sitapur Jn.,NER,LJN,"27.5589112","80.69792551"
WRR,Warora,CR,NGP,"20.245215","79.010395"
AFK,Angamali for Kaladi                                         ,SR,TVC,"10.18353083","76.37799667"
ABZ,Adgaon Buzurg                                               ,SCR,NED,"21.12775","76.943737"
BEU,Bisheshwarganj,NER,LJN,"27.34295949","81.83209595"
BXG,Bhanga,NFR,LMG,"24.85417167","92.479875"
ASBS,Amar Shahid Bhale Sultan,NR,LKO,"26.435303","81.695493"
SGKM,Srungavruksham,SCOR,BZA,"16.54341033","81.60162683"
NLDM,Nangal Dam                                                  ,NR,UMB,"31.37070667","76.37337333"
ACS,Ultratech Cement Siding-SHAMBHUPURA & CHITTORGARH                     ,WR,RTM,"24.771149","74.641628"
PTWA,Patwara,WCR,JBP,"23.91403056","80.41364444"
VNG,Visnagar                                                    ,WR,ADI,"23.70269352","72.54216981"
SEPR,Sherpur,NR,MB,"28.92271067","78.25398433"
MVN,Milavittan                                                  ,SR,MDU,"8.81122082","78.08851143"
RVJ,RAVLI JN                                         ,CR,CSTM,"19.02590011","72.86073937"
LKR,Luckeesarai Jn.                                             ,ECR,DNR,"25.17171983","86.0940175"
FM,Falaknuma,SCR,HYB,"17.33273333","78.47511111"
TRWT,Taravata,WCR,BPL,"24.737018","77.3789925"
MIN,Mihinpurwa,NER,LJN,"28.02692167","81.38516067"
AT,Asnoti                                                      ,KRCL,KAWR,"14.87626355","74.14771146"
ARR,Arariya,NFR,KIR,"26.13634","87.41194333"
TISI,Tisi                                                        ,WR,BCT,"21.3831375","74.36862433"
DML,Dharamtul,NFR,LMG,"26.1877311","92.36411984"
MLG,Malhargarh                                                  ,WR,RTM,"24.26638222","74.97351781"
NLE,Nileshwar                                                   ,SR,PGT,"12.25629167","75.135476"
RDU,Radhamohanpur                                               ,SER,KGP,"22.356829","87.61348133"
RGH,Ramgarhwa F                                                 ,ECR,SPJ,"26.873888","84.797647"
SUW,Sukhi Sewaniyan,WCR,BPL,"23.34043956","77.4853776"
BPCL,BPC/IBP SIDING                                              ,SCR,SC,"17.458072","78.606019"
SEGM,Sevagram,CR,NGP,"20.738775","78.61841833"
DPA,Durgapura                                                   ,NWR,JP,"26.85489195","75.78696084"
TKB,Tupkadih                                                    ,SER,ADRA,"23.71348","86.06409167"
NLH,Naultha                                                     ,NR,DLI,"29.31596167","76.885995"
YDM,Yedamangala                                                 ,SWR,MYS,"12.71486333","75.44319833"
KXG,kharia Khangar                                              ,NWR,JU,"26.61263055","73.68985"
BPMG,bharat petroleum corporation limited siding mangliyagaon    ,WR,RTM,"22.814954","75.917931"
BPMS,BENGDUBI MILITARY PROJECT SIDING (BG)                       ,NFR,KIR,"26.664373","88.374496"
BPUN,NEW BHAUPUR JN,DFCR,EDFC,"26.979452","78.737555"
PST,Posoita                                                     ,SER,CKP,"22.44692557","85.25427253"
BQF,Barah Muafi,WCR,JBP,"25.042732","81.02081733"
UDGR,Udgir,SCR,SC,"18.39088402","77.10986275"
SLGH,Shelgaon                                                    ,SCR,HYB,"19.08040824","77.58891514"
SWNR,Sewa Nagar                                                  ,NR,DLI,"28.57875667","77.22763667"
BGS,BEGUSARAI                                                 ,ECR,SEE,"25.42542422","86.13357731"
DQL,DHALAIBIL,NFR,RNY,"26.7912739","92.92338453"
KFN,Kanor                                                       ,NWR,AII,"24.45904219","74.26710321"
TKF,Taki Road                                                   ,ER,SDAH,"22.58798333","88.91588667"
MNF,Manda Road                                                  ,NCR,PRYJ,"25.16331833","82.23732167"
KSBG,Khusta Buzurg,CR,BSL,"21.20326567","77.45775167"
SEY,Seoni                                                       ,SECR,NAG,"22.075265","79.545583"
SGA,Shergarh                                                    ,NWR,BKN,"30.06561333","74.9493005"
BPGH,M/s BPCL Hirenanduru,CR,SUR,"17.258567","76.872363"
TWV,Thuwavi,WR,BRC,"22.172155","73.354504"
AAGN,M/s Adani Agri Logistics(Panipat) Ltd.,NR,DLI,"29.315962","76.885995"
AELN,New Ateli Jn.,DFCR,WDFC,"28.11403695","76.29976915"
ABBS,Burragarh siding of m/s. bccl                               ,SER,ADRA,"23.723401","86.405625"
BKMT,Bakudi Malitok Siding,ER,MLDT,"24.926246","87.780592"
ACTR,ANAANTA COLLIERY SIDING                                     ,ECOR,KUR,"20.932182","85.200305"
ADMS,AMMUNITION DEPOT MILITARY SIDING DHAPPAR                    ,NR,UMB,"30.610547","76.847692"
ADSL,"AMMUNITION DEPOT MILITARY SIDING, LALRU                     ",NR,UMB,"30.479746","76.79409"
ASCR,Chinakuri NO. 3 OF M/S. ECL                                 ,SER,ADRA,"23.670311","86.861687"
ASGN,GCT of M/s Aarti Steels Limited,ECOR,KUR,"20.510882","85.736146"
ASGS,GATI SHAKTI CARGO TERMINAL (GSCT) OF ACTL SAMBA PRIVATE LTD.,NR,JAT,"32.528259","75.119903"
ATPS,ANPARA  THERMAL POWER SDG                                   ,ECR,DHN,"24.154585","82.768056"
AALJ,Adani Agri Logistics (Kannauj) Limited GCT Jasoda,NER,IZN,"27.08382","79.819072"
AULS,Ankur Udyog Limited (Steel Division) GCT Sahjanwa,NER,LJN,"26.763545","83.21517"
BCFG,GRASIM INDUSTRIES LIMITED                                   ,ECR,DHN,"24.214639","83.885336"
BCME,Burnco Siding                                               ,ER,ASN,"23.723754","86.896362"
BCMT,BHARATPUR PVT SIDING OF MCL                                 ,ECOR,KUR,"20.932182","85.200305"
BCSK,BINA PVT SIDING                                             ,ECR,DHN,"24.154585","82.768056"
BCSR,BACHRA SIDING AT RAY (BACHRA NEW)                           ,ECR,DHN,"23.689962","85.077696"
BKRI,BHARAT PETROLEUM CORP LTD - KR,SR,TVC,"9.9681","76.3551"
BPCI,"BPCL SDG, IRUMPANAM                                         ",SR,TVC,"9.9681","76.3551"
BPCM,"BPC LTD SIDING, DDU                                   ",ECR,DDU,"25.278539","83.11964"
BPCR,"BPCL SIDING, KARARI                                         ",NCR,JHS,"25.53036","78.508644"
BPHT,POWER HOUSE SIDING                                          ,NR,DLI,"28.512143","77.294226"
SKN,Sri Krishna Nagar                                           ,NR,LKO,"25.88335433","82.44920933"
MWE,Mewa Nawada                                                 ,NR,MB,"29.11824968","78.61288386"
AAGM,"M/S ACC LIMITED, AMETHA GCT SERVED BY MEHGAON",WCR,JBP,"24.003904","80.513301"
SKX,Sarkara,NER,IZN,"29.16150333","79.06328"
NIN,Nimakana Passenger Halt                                     ,ECOR,KUR,"20.29527417","86.37060517"
BRCY,Vadodara  Marshalling Yard                                  ,WR,BRC,"22.331169","73.169416"
BRBC,BARPALI ROAD,SER,CKP,"22.04798518","83.77806881"
NKCR,NEW KUSUMUDA COLLIERY (LINE-I),SECR,BSP,"22.337374","82.712803"
BAF,BAP                                                         ,NWR,BKN,"27.377934","72.385094"
TKE,Tarikere                                                    ,SWR,MYS,"13.711665","75.81274667"
PRZ,Parsa,NER,LJN,"27.44436654","82.88923618"
SAW,Suriawan,NR,LKO,"25.46132377","82.42380198"
TVNL,Tiruvennainallur Road                                       ,SR,TPJ,"11.84159167","79.41281111"
SLKR,Salka Road,SECR,BSP,"22.36587763","82.01050569"
BLBT,"BIRATOLI, LINE NO.1",ECR,DHN,"23.681158","84.740124"
DBYC,DUGDA LINE NO.3 BOX YARD PUBLIC SIDING,ECR,DHN,"23.758408","86.161598"
QTP,Qutabpur                                                    ,NR,DLI,"29.76174833","76.34617167"
JI,Jhusi,NER,BSB,"25.43126343","81.91623262"
SMBL,Simbhooli                                                   ,NR,MB,"28.76484317","77.98312267"
YS,Yermaras,SCR,SC,"16.27187731","77.34734209"
ASTG,ASHTEGAON,CR,NGP,"21.29723167","77.93471"
AKSP,Anksapur                                                    ,SCR,SC,"18.79826433","78.36951139"
CFVS,Coromandel Fertilizer ltd  Siding VPT,SCOR,VSKP,"17.6998","83.2961"
GGNP,Ganganapalle,SCOR,GTL,"14.45229767","78.7040575"
NLKR,Nilokheri                                                   ,NR,DLI,"29.83189333","76.92512333"
CBP,Chikballapur                                                ,SWR,SBC,"13.427445","77.732319"
BPOB,BHARAT PERTOLEUM OIL DEPOT SIDING                           ,NER,BSB,"26.552183","83.738077"
BPOL,"BPCL Siding , BAD                                           ",NCR,AGRA,"27.395851","77.689562"
BQER,BAKANIAN BHAUNARI RELIANCE                                  ,WR,RTM,"23.262007","77.252769"
RNBT,RAHENBHATA                                                  ,ECOR,SBP,"20.3245535","83.09480817"
BSDC,BIRDS SONDA COLLIERY SIDING                                 ,ECR,DHN,"23.667324","85.306177"
CCSJ,JAMTARA   SDG                                               ,ER,ASN,"23.959274","86.805553"
CCSP,Chasnalla (T.B.Sdg)                                         ,ECR,DHN,"23.675195","86.43423"
CFSL,"GGFC SIDING, LUCKNOW                                        ",NR,LKO,"26.830505","80.925121"
SMPA,Shyampura,WCR,KOTA,"25.246804","75.271991"
UDN,Udhna Jn.                                                   ,WR,BCT,"21.1703855","72.85121683"
TI,Tiruninravur                                                ,SR,MAS,"13.12395749","80.02975546"
BRLN,NEW BIROLIYA,DFCR,WDFC,"25.191115","73.208131"
CCSR,"CHURI SDG, RAY                                              ",ECR,DHN,"23.689962","85.077696"
CHJD,cHENNAI hARBOUR - JAWAHAR DOCKS                             ,SR,MAS,"13.0884","80.2958"
AGB,AMBAGAON,ECOR,RGDA,"19.0617685","82.24099"
BIRP,Birarajpur                                                  ,SER,CKP,"22.82304833","86.06563167"
SNDI,Sendurai                                                    ,SR,TPJ,"11.25541389","79.16738889"
BPPS,BARRACKPORE  RACECOURSE  SDG(FOR  MILY ONLY) BARRACKPORE    ,ER,SDAH,"22.760765","88.371128"
GRI,Guriya                                                      ,NWR,AII,"25.9968","73.952225"
CNDM,Chandi Mandir                                               ,NR,UMB,"30.72718817","76.88702917"
NRV,Nariyar  Halt                                               ,ECR,SPJ,"26.24013635","85.21764437"
QXR,Kuchesar Road                                               ,NR,MB,"28.74735567","77.9152145"
PLMX,Palampur Himachal,NR,JAT,"32.081457","76.51577"
WRA,Walayar                                                     ,SR,PGT,"10.84698843","76.83757296"
SNCA,Singra,NFR,RNY,"25.98507265","91.14137893"
BJWS,Bojawas halt                                                ,NWR,BKN,"28.29494733","76.21343683"
BRSG,Bharat Petroleum Siding                                     ,CR,CSTM,"19.023498","72.925358"
BRTA,Bartara  Halt                                               ,NR,MB,"27.8289817","80.02443865"
KAHL,KARHAL,NCR,PRYJ,"27.01349278","78.93588889"
TIG,Titlagarh                                                   ,ECOR,SBP,"20.28443571","83.15486785"
KAYI,Kaydi P.H.,SECR,NAG,"21.79529067","80.10929367"
SNCR,SANPADA,CR,CSTM,"19.066015","73.010705"
CAPG,Chapaguri,NFR,APDJ,"26.3492578","89.33773389"
RRME,Ranchi Road                                                 ,ECR,DHN,"23.66625433","85.51289433"
NVD,Navalgund Road                                              ,SWR,UBL,"15.43538217","75.35468467"
PLSG,Palasingi PH,ECOR,RGDA,"19.014518","83.80506467"
RRW,Roranwala                                                   ,NR,FZR,"30.443154","74.2575235"
SPS,Shripat Shrikhanda,ER,HWH,"23.60358833","88.06947833"
SPTR,Silapathar,NFR,TSK,"27.59267484","94.71804846"
UGN,Ugaon,CR,BSL,"20.12328933","74.139693"
SPZ,Sampla                                                      ,NR,DLI,"28.78249","76.773"
UBL,sss hubballi   jn,SWR,UBL,"15.3479833","75.15858521"
WTJ,Jam Wanthali                                                ,WR,RJT,"22.4293468","70.32246465"
NZB,Nizamabad JUNCTION                                                  ,SCR,HYB,"18.67873611","78.10239445"
RSA,Risama,SECR,R,"21.05895817","81.32494817"
RDV,Radha Balampur                                              ,NR,LKO,"26.08951389","81.11656111"
UCR,Unchahar Jn.                                                ,NR,LKO,"25.90283083","81.30034017"
BSGS,BHUSAVAL GOODS SHED                                         ,CR,BSL,"21.047","75.7884"
BSIM,Bihar Sponge Iron Ltd                                       ,SER,CKP,"22.919978","86.066809"
BSK,BALLAST SIDING                                              ,SECR,NAG,"21.168285","79.141045"
BLDA,Belda                                                       ,SER,KGP,"22.0683","87.33503167"
BSKN,Bhesana Mankanaj                                            ,WR,ADI,"23.49840217","72.33092783"
CODX,"COD Siding , Kanpur                                         ",NCR,PRYJ,"26.454283","80.350914"
COF,"COROMANDEL FERTILISER SDG, ENNORE                           ",SR,MAS,"13.217219","80.321217"
COIB,Combined Oil Industry  at Somenathopur of M/s. HPCL         ,SER,KGP,"21.500991","86.920052"
COLS,BHARAT EARTH MOVERS SIDING,SWR,SBC,"12.97562","78.257718"
CPIB,CONCOR of M/s. Concor                                       ,SER,KGP,"21.500991","86.920052"
CPML,CENTURY PULP AND PAPER MILL                                 ,NER,IZN,"29.071174","79.517241"
NKKH,Nimpura Goods Shed Complex                                  ,SER,KGP,"22.346","87.232"
SQQ,Salegaon                                                    ,ECOR,KUR,"20.56378483","85.9568885"
DIU,Dhing,NFR,LMG,"26.45325667","92.45231833"
CSID,MOHAN SIDING PALACHORI                                      ,CR,NGP,"22.201352","78.659427"
TIL,Tilrath                                                     ,ECR,SEE,"25.44192133","86.06628167"
SUNM,Sunmai Halt,NR,MB,"28.02175817","78.1562405"
UDT,Udumalaippettai,SR,MDU,"10.57934966","77.24903541"
DJ,Darjeeling,NFR,KIR,"27.03801816","88.26312263"
SNRR,Sansarpur,WCR,JBP,"23.66011067","80.3305145"
KGMR,Kangra Mandir,NR,JAT,"32.09703502","76.28744004"
BLNR,Birlanagar,NCR,JHS,"26.23742333","78.19518833"
BLJA,Bhalojala  Halt                                             ,NR,FZR,"31.48660654","75.23959852"
BSPX,Banspani                                                    ,SER,CKP,"22.00040592","85.42378587"
BTD,Botad Jn.                                                   ,WR,BVP,"22.18349533","71.66560383"
DPNR,Deepnagar Halt                                              ,ECR,DNR,"25.1440645","85.48587283"
DUT,Dum Duma Town,NFR,TSK,"27.573918","95.55608879"
BTIB,BHATINDA 'B' CABIN                                          ,NWR,BKN,"30.18604","74.93597"
PLT,Pirthala Lalauda                                            ,NR,UMB,"29.62341767","75.86699717"
SBP,Sambalpur                                                   ,ECOR,SBP,"21.4842387","83.9582454"
CTPS,CHANDRAPUR  THERMAL  POWER  STN  SDG                        ,ECR,DHN,"23.758408","86.161598"
CWCN,"CWC SIDING, NOLI                                            ",NR,DLI,"28.746591","77.310791"
SFE,Sanodiya                                                    ,NWR,JP,"27.0131923","75.27964672"
TIP,Tattapparai                                                 ,SR,MDU,"8.82960461","78.02248617"
IJK,Irinjalakuda                                                ,SR,TVC,"10.34050338","76.28108467"
TVC,THIRUVANANTHAPURAM CENTRAL                                  ,SR,TVC,"8.4867475","76.95285667"
RHI,Rakhi halt,NWR,JU,"25.68585833","72.55473889"
VONB,VONDH                                                       ,WR,ADI,"23.30747929","70.4350451"
NIP,Nizampur,NWR,JP,"27.96653061","76.01075026"
BLT,Balotra Jn.                                                 ,NWR,JU,"25.83030833","72.24716944"
YPD,Yerpedu,SCOR,GTL,"13.68749089","79.57517921"
VTG,Bhetaguri,NFR,APDJ,"26.201","89.48223333"
SIC,Sonik                                                       ,NR,LKO,"26.585705","80.5592595"
SRNR,Sriramnagar                                                 ,SCR,HYB,"16.303897","77.867814"
DFSD,"FOOD CORPN. OF  INDIA, DANKUNI                              ",ER,HWH,"22.677342","88.291411"
DGCW,"DURGAPUR CEMENT WORKS, ANDAL                                ",ER,ASN,"23.579052","87.181234"
DMGS,DAMAGORIA COLLY.SDG                                         ,ER,ASN,"23.759895","86.875935"
DPSC,DUGDA LINE NO.5 PUBLIC SIDING,ECR,DHN,"23.758408","86.161598"
DSKP,"DSKP RLY SDG, KATHUA                                        ",NR,FZR,"32.397537","75.551562"
DSTP,M/S Durgapur Steel Thermal Power Station                    ,ER,ASN,"23.579052","87.181234"
DSWD,DAURALA SUGAR WORKS SIDING                                  ,NR,DLI,"29.114225","77.70637"
EPHI,EPH SIDING RAJGHAT                                          ,NR,DLI,"28.642464","77.220154"
EPHN,EPH SIDING INDRAPRASTHA                                     ,NR,DLI,"28.642464","77.220154"
UMS,Udramsar                                                    ,NWR,JU,"27.92349167","73.3443"
DRTA,DRONAGIRI   Rail Terminal                                   ,CR,CSTM,"18.90199985","72.99950196"
DSGR,DEEPIKA SIDING OF SECL                                      ,SECR,BSP,"22.348964","82.6461"
DSRP,DIESEL LOCO SHED                                            ,SECR,R,"21.256582","81.629448"
EKLN,NEW EKDIL,DFCR,EDFC,"26.979452","78.737555"
ALN,Alandi,CR,PUNE,"18.46283562","74.06424371"
NZM,Hazrat Nizamuddin Jn.                                       ,NR,DLI,"28.5890435","77.2538275"
MTPC,Motipura Chauki,WCR,KOTA,"24.60925283","77.04841583"
PI,Padli                                                       ,CR,BSL,"19.79597551","73.67230685"
ERNF,"The Fertilizers and Chemicals Travancore Siding, IPN        ",SR,TVC,"9.9681","76.3551"
ERNS,"Cochin Refineries Broad Gauge Siding (POL & LPG), IPN       ",SR,TVC,"9.9681","76.3551"
PPO,Panposh                                                     ,SER,CKP,"22.22857667","84.804155"
BLY,Bally,ER,HWH,"22.65572333","88.34062167"
SKI,Sakri Jn.                                                   ,ECR,SPJ,"26.20875","86.07765667"
BZE,Baseria                                                     ,ECR,DHN,"23.78649971","86.377202"
FBWS,"M/S FLASH BUTT WELDING SDG, JHARSUGUDHA JN.                 ",SER,CKP,"21.862534","84.017687"
FCC,FOOD CORPN OF INDIA SIDING                                  ,NER,LJN,"26.751129","83.417301"
FCDB,"FCI SIDING, DEC                                             ",NR,DLI,"28.613384","77.116427"
FCE,FCI SIDING                                                  ,NR,DLI,"28.846516","77.085357"
FCG,FCI SIDING GHEVRA                                           ,NR,DLI,"28.691642","76.998196"
CPPR,CHAMPAPUR HALT                                              ,ECR,DNR,"25.46132306","85.50529117"
SWD,Sanawad                                                     ,WR,RTM,"22.178167","76.073806"
SWO,Sonwara                                                     ,NR,UMB,"30.89426333","77.00479767"
UNCT,Uran City                                                   ,CR,CSTM,"18.878189","72.952137"
ESCL,M/S  ELECTRO  STEEL  CASTINGS LTD  SDG  SODEPUR             ,ER,SDAH,"22.698921","88.382263"
MZH,Mauhari,SECR,BSP,"23.11887865","81.76980058"
NLKT,NALKATA,NFR,LMG,"24.06271667","92.00076333"
BVM,Bayyavaram,SCOR,BZA,"17.65992067","82.93034667"
FCIB,FCI SIDING                                                  ,NR,LKO,"26.935385","81.18109"
AMGU,Ammuguda,SCR,SC,"17.48916883","78.5232395"
FCID,"FCI SIDING, DHURI                                           ",NR,UMB,"30.373171","75.867033"
BXO,Boparai Halt                                                ,NR,FZR,"31.24279583","74.78246033"
DKX,Dudhwakhara                                                 ,NWR,BKN,"28.459844","75.166397"
NALR,Nalpur                                                      ,SER,KGP,"22.52920933","88.18608117"
NLSK,Private Siding of M/s. NTPC Lara STPP / KRL,SECR,BSP,"21.883515","83.48257"
SGC,Saongi P.H.                                                  ,SECR,NAG,"21.79685017","79.99774383"
BQH,Bhanohad Punjab                                             ,NR,FZR,"30.86572","75.75366383"
FCKR,FCI SIDING KUR                                              ,ECOR,KUR,"20.153136","85.708294"
FCKS,"FACT SDG, KALAMASSERI                                       ",SR,TVC,"10.062248","76.327386"
NMC,Nimcha B.H.                                                 ,ER,ASN,"23.62694513","87.0873182"
AB,Ambur,SR,MAS,"12.7841489","78.72200994"
FCP,FCI SIDING                                                  ,NR,DLI,"29.894383","76.649723"
NMFS,BHARAMPUTRA VALLEY FERTIILIZER CORPN (P)(BG)                ,NFR,TSK,"27.19632","95.313692"
WIRR,Wirur,SCR,SC,"19.6416835","79.4313009"
ACCG,ACC SIDING                                                  ,NR,LKO,"26.20381","81.687126"
BLYG,Bally Ghat                                                  ,ER,SDAH,"22.65257972","88.34875406"
ACLA,AMLAI COLLIERY SIDING                                       ,SECR,BSP,"23.173189","81.593227"
ACSK,"ANGARPATHRA COLLERY SDG, KATRASGARH                         ",ECR,DHN,"23.795987","86.302629"
ACSY,M/S. AMBUJA CEMENTS LTD.                                ,SER,KGP,"22.547757","88.199272"
SXN,Sonakhan                                                    ,SER,CKP,"22.16637836","84.52001874"
UTD,Utarsanda                                                   ,WR,BRC,"22.655071","72.889073"
FCIG,"FCI SIDING GNANAPURAM, VPT",SCOR,VSKP,"17.6998","83.2961"
AECS,ELECTRIC POWER HOUSE SIDING - SABARMATI                     ,WR,ADI,"23.077166","72.588902"
SHW,Samhon,NCR,PRYJ,"26.73425333","79.32063944"
FCPP,FCI SIDING                                                  ,NR,DLI,"29.389018","76.963863"
FCSC,FCI siding . Kanpur (CHANDARI)                              ,NCR,PRYJ,"26.427808","80.360355"
TLKH,Talakhajuri                                                 ,NR,LKO,"26.17715","81.73661667"
NMGS,NUMALIGARH REFINERY PROJECT SIDING (P) (BG)                 ,NFR,TSK,"26.601114","93.865643"
AZ,Azimganj Jn                                              ,ER,HWH,"24.23064114","88.25952809"
NMKL,Namakkal                                                    ,SR,SA,"11.2260429","78.17908854"
AGTR,AGAUTHAR HALT,NER,BSB,"26.0085716","84.84401105"
FCSN,FCI SIDING                                                  ,NR,DLI,"29.588722","76.109376"
FCSP,FCI SIDING PATIALA                                          ,NR,UMB,"30.344139","76.40399"
FCSS,"FCI SIDING, FCSS                                            ",NR,FZR,"30.837836","75.9799"
DTT,DODAANATTA HALT                                             ,SWR,SBC,"13.374465","78.13654"
WLA,Valtoha                                                     ,NR,FZR,"31.19707767","74.66785583"
KLNP,Kalinarayanpur Jn.                                          ,ER,SDAH,"23.20823656","88.57294807"
FDBR,Fertiliser Handling Siding of M/s DPCL,ECOR,KUR,"21.068322","86.47562"
BCB,Bhowra   BH                                                 ,SER,ADRA,"23.67100333","86.41569667"
FDSG,"SPECIAL RAILWAY SIDING, FARIDABAD                           ",NR,DLI,"28.376298","77.309418"
SM,Samsi,NFR,KIR,"25.27618493","88.01072299"
FFSG,"FILLING FACTORY SIDING, BHANDAK                             ",CR,NGP,"20.084712","79.112978"
FIK,FOOD CORPN OF INDIA SIDING                                  ,NER,LJN,"27.1426","81.93831"
FKZS,"FCI SDG, KAZHAKUTTAM                                        ",SR,TVC,"8.556238","76.872625"
FLY,M/s fomento resources pvt ltd.& siding s/b yeshwantnagar,SWR,UBL,"15.048088","76.498318"
FIH,FCI SIDING HUBLI,SWR,UBL,"15.350742","75.148544"
BLPU,Bilpur                                                      ,NR,MB,"28.08078933","79.62709083"
NRS,Nagaria Sadat                                               ,NR,MB,"28.550289","79.20564867"
FOS,Kiruburu New Bunkar of M/s.SAIL                             ,SER,CKP,"22.097728","85.330811"
FPSG, Fertiliser Plant                                           ,SER,CKP,"22.186133","84.915133"
WOC,WARUD ORANGE CITY,CR,NGP,"21.45843","78.275825"
AGSA,AJNI Goods shed served by AJNI,CR,NGP,"21.126945","79.082785"
GCCK,Gati Shakti Cargo Terminal of Container Corporation of India Ltd,SWR,MYS,"12.190732","76.663703"
GPSD,GRAVEL PUBLIC SIDING                                        ,SER,KGP,"22.506253","86.551881"
HPCM,HPCL SIDING                                                 ,NR,LKO,"26.77458","80.841694"
ADE,Adari Road                                                  ,WR,BVP,"20.98712767","70.33089"
HPPK,HPCL SIDING PARADEEP                                        ,ECOR,KUR,"20.280554","86.620331"
HPTR,M/S Hindustan petroleum corporation ltd.                    ,NCR,JHS,"26.376338","80.118484"
HSTL,HINDUSTAN STEEL LTD SIDING                                  ,NR,FZR,"31.380753","75.542164"
ICDD,"Inland Container Depot,Dadri                                ",NCR,PRYJ,"28.53816","77.537642"
BCF,Bankapasi F,ER,HWH,"23.57085833","88.03784"
ICDG,"Inland Container depot,Juhi/Kanpur                          ",NCR,PRYJ,"26.4499","80.3319"
ICDM,"Inland Container depot,Malanpur                             ",NCR,JHS,"26.413088","78.272781"
ICDP,Inland Container Depot Dapper                               ,NR,UMB,"30.610547","76.847692"
ICDY,"Inland Container depot,Yamuna Bridge                        ",NCR,AGRA,"27.191892","78.038507"
BWV,Bhiwapur                                                    ,SECR,NAG,"20.76636667","79.52288133"
AGS,ALWAR GOODS SHED                                            ,NWR,JP,"27.5609","76.625"
BMPL,Brahmanpalli,SCR,HYB,"17.83332222","78.45030833"
SN,Sukna,NFR,KIR,"26.79044485","88.36343701"
IACM,M/S. HINDALCO INDUSTRIES LTD. AT MURI                       ,SER,RNC,"23.377871","85.867167"
SYH,Saiyedpur Bhitri,NER,BSB,"25.53896053","83.23415598"
GJPD,"GOP JAM PUBLIC SDG DIGO, GOP (JAM)                          ",WR,RJT,"22.037117","69.895363"
FMP,FERRO MANGANESE SIDING (FACOR),SCOR,VSKP,"18.273776","83.531413"
HPCV,HPCL SIDING VPT,SCOR,VSKP,"17.6998","83.2961"
YDV,Yadvendranagar (Halt),NER,BSB,"25.76153005","82.74303018"
NVF,Nagavangala                                                 ,SWR,MYS,"13.66447833","75.99168167"
AEX,Adderi H                                                    ,SWR,MYS,"14.142685","75.15405167"
ICML,Integrated Coal Mines Ltd.Sdg.                              ,ER,ASN,"23.743555","87.019615"
ICOD,Inland Container Depot Okhla                                ,NR,DLI,"28.512143","77.294226"
ICPH,Inland Container Depot /PHILLAUR                            ,NR,FZR,"31.016897","75.785751"
NMVP,MAHAGENCO NEW PARLI THERMAL POWER STATION SIDING            ,SCR,SC,"18.852605","76.524024"
NMWP,NEW MAJHAGAWAN PHATAK,WCR,JBP,"23.85063006","80.36644428"
ICSK,"IOC LTD. SDG, MG, KHARI ROHAR ROAD                          ",WR,ADI,"23.03","70.22"
ICSP,Inland Container Depot SONIPAT                              ,NR,DLI,"28.989073","77.016993"
IFAB,IFFCO SIDING                                                ,NR,MB,"28.287919","79.285106"
IOBT,POL SDG. FOR M/S IOC/BPCL TADALI                            ,CR,NGP,"20.034725","79.187393"
IOCG,"IOC Siding ,BAD                                             ",NCR,AGRA,"27.395851","77.689562"
IOCR,IOC SDG RAJBANDH                                            ,ER,ASN,"23.475686","87.371864"
IOCS,IOC siding Subedarganj                                      ,NCR,PRYJ,"25.440019","81.790037"
AIPC,India CEMENTS LTD SIDING                                    ,SR,MAS,"13.249136","80.299416"
AIPH,HINDUSTHAN PETROLEUM CORPORATION LIMITED PRIVATE SIDING     ,SR,MAS,"13.217219","80.321217"
AIPO,ENNORE COAL TERMINAL PRIVATE LIMITED SIDING,SR,MAS,"13.249136","80.299416"
AIPS,"THERMAL POWER PLANT SIDING, ATTIPATTU                       ",SR,MAS,"13.249136","80.299416"
AIPZ,ZUARI CEMENTS LTD SIDING                                    ,SR,MAS,"13.249136","80.299416"
SLZ,Solari                                                      ,ECOR,KUR,"19.800878","85.24824183"
SXZM,SOPORE,NR,JAT,"34.25784233","74.45121417"
VEK,Vellarakkad                                                 ,SR,PGT,"11.47063583","75.66187583"
BMSB,Bhimasar,WR,ADI,"23.18623183","70.17520067"
ICK,IOC LTD SIDING(HAZIRA)-KOSAD                                ,WR,BRC,"21.255782","72.86562"
AII,Ajmer Jn.                                                   ,NWR,AII,"26.45808333","74.637475"
BDPG,BADAPADAGAON PH                                             ,ECOR,KUR,"20.57028883","85.8733705"
CPS,Chandpur Siau Halt                                          ,NR,MB,"29.1317785","78.2766125"
NYK,Naya Kharadia                                               ,NWR,JU,"27.03830278","74.93696389"
SMAP,Shamnapur,SCR,HYB,"18.10224836","78.32033176"
SUJH,Sujangarh                                                   ,NWR,JU,"27.70948055","74.46409722"
IOCT,IOC SIDING TATANAGAR                                        ,SER,CKP,"22.768584","86.20019"
VNJ,Vanjipalaiyam                                               ,SR,SA,"11.11815648","77.26625318"
IOG,IOC LTD (HAZIRA)-GOTHANGAM                                  ,WR,BRC,"21.17923","72.72404"
IOJB,Banspani Iron Ltd                                           ,SER,CKP,"21.952519","85.419044"
IOK,IOC SIDING KUR                                              ,ECOR,KUR,"20.153136","85.708294"
DVA,Delvada                                                     ,WR,BVP,"20.77351633","71.04169783"
NNB,Nimblak                                                     ,CR,PUNE,"19.11890333","74.688895"
IOPK,IOC Siding Panki                                            ,NCR,PRYJ,"26.459662","80.236931"
IORG,India Oil Refinery Siding                                   ,ECR,SEE,"25.4407","86.0053"
IOSJ,"IOC SIDING, SCPD                                            ",NR,FZR,"31.343082","75.621471"
RJI,Rajawari,NER,BSB,"25.49852694","83.13165468"
IOSP,Indian Oil Corporation Paradeep                             ,ECOR,KUR,"20.280554","86.620331"
IOTS,INDIAN OIL CORPORATION TANK WAGON  SIDING SERVED BY SALAWAS ,NWR,JU,"26.141261","73.013763"
AKKK,Kustor Siding OF M/S. BCCL                                  ,SER,ADRA,"23.723401","86.405625"
TNX,Tarak Nagar   H                                             ,ER,SDAH,"23.38340661","88.68642484"
TZD,Tozhuppedu                                                  ,SR,MAS,"12.36892847","79.78474444"
RMF,Ramna                                                       ,ECR,DHN,"24.240116","83.60611517"
BMSN,Bamsin                                                      ,NWR,JU,"25.76214444","72.54445556"
TKNR,Thakurnagar                                                 ,ER,SDAH,"22.92458667","88.77788333"
IPCP,M/s IOCL Pet Coke siding,ECOR,KUR,"20.280554","86.620331"
ISCG,BUNKER SIDING AT GUA FOR M/S. INDIAN IRON & STEEL CO. LTD.  ,SER,CKP,"22.218159","85.381536"
CLJ,Colonelganj,NER,LJN,"27.13750807","81.69338302"
JCZ,JHINGURDAH COLLIERY SIDING                                  ,ECR,DHN,"24.204287","82.642765"
RMR,Ramnagar,NER,IZN,"29.38965333","79.12195667"
BZS,Bansjora                                                    ,ECR,DHN,"23.79046697","86.35499172"
DG,Dindigul Jn.,SR,MDU,"10.35517712","77.98580604"
JRGD,JARANGDIH LINE NO. II                                       ,ECR,DHN,"23.769793","85.92905"
SMX,Simurali                                                    ,ER,SDAH,"23.04072247","88.51001184"
KANR,KUKANUR,SWR,UBL,"15.48475489","75.9893735"
ACU,Achuara Halt                                                ,ECR,DNR,"25.45291133","85.65694583"
ANMD,Arang  Mahanadi                                             ,ECOR,SBP,"21.1897505","81.95559893"
KBPS,KHRIDWA BULK CUM PACK PETROLEUM SIDING                      ,NR,UMB,"30.338658","76.826706"
KCHL,Korichhapar Line No. 01,SECR,BSP,"21.992065","83.103414"
TKRA,Tikra P.H.                                                  ,SER,KGP,"21.66720333","87.53459833"
KCPS,KCP LTD SIDING                                              ,SR,MAS,"13.159725","80.296154"
ALUH,ALAULI,ECR,SPJ,"25.714775","86.185647"
JKCG,M/S J K Cement Siding-Mangrol                               ,WR,RTM,"24.693503","74.670639"
ALUS,ARIYALUR CEMENT SIDING                                      ,SR,TPJ,"11.150235","79.068518"
BNHL,Bellenahalli                                                ,SWR,MYS,"14.244419","76.554847"
SYE,Sindewahi                                                   ,SECR,NAG,"20.29736","79.67"
JSWB,JSW BLOCK CABIN,SER,ADRA,"22.530237","87.320366"
KCHP,Korichhapar,SECR,BSP,"21.99184","83.102474"
KCKT,KATKONA COLLIERY                                            ,SECR,BSP,"23.311833","82.71409"
KBTS,Krishak Bharti Co-op. Siding -Gothangam                     ,WR,BRC,"21.17357","72.69862"
JPCT,JAYAPRAKASH CEMENT SIDING-TANDA,NR,LKO,"26.543848","82.645168"
DGN,Dongargaon,CR,BSL,"21.620175","76.37097"
RGP,Raghunathpalli,SCR,SC,"17.75710504","79.25672332"
CSM,Cansaulim                                                   ,SWR,UBL,"15.3448782","73.8976353"
KCSD,KOREA BLK NO 1 & 2 DARRITOLA                                ,SECR,BSP,"23.289288","82.395401"
ADF,Adina,NFR,KIR,"25.11455167","88.12303667"
EKN,Ezhukone                                                    ,SR,MDU,"8.97939833","76.71522783"
CNKH,Chinnakote halt,SWR,SBC,"12.981158","78.226165"
ALGP,Algapur,NFR,LMG,"24.75174833","92.59487"
GNJB,Gopinathjew Banikunda (PH)                                  ,ECOR,KUR,"20.29080604","86.44337899"
KDSK,KUSUNDA SIDING,ECR,DHN,"23.790411","86.411719"
NNL,Narnaul                                                     ,NWR,JP,"28.04475134","76.12333687"
RG,Rajghat Narora                                              ,NR,MB,"28.23585483","78.35360367"
SMQL,Shamli                                                      ,NR,DLI,"29.44504167","77.31622167"
VRX,Varahi                                                      ,WR,ADI,"23.8010205","71.435408"
CHPA,Chhapar Halt                                                ,ECR,DHN,"23.6920515","85.21191217"
RTI,Raoti                                                       ,WR,RTM,"23.18396833","74.87938333"
SUM,Summit,CR,BSL,"20.211655","74.34388467"
TLS,Bettahalsoor H                                              ,SWR,SBC,"13.166287","77.604394"
LCTS,Laxmi Cement Siding (BG)                                    ,DFCR,WDFC,"24.713504","72.989066"
KSDJ,KONDEY SIDING                                               ,SECR,R,"20.586249","81.067493"
KWKL,Kakri wharfwall siding,ECR,DHN,"24.157396","82.767272"
LFSG,M/s.NUVOCO VISTAS CORPORATION LTD  SERVED BY GAMBHIRI ROAD   ,WR,RTM,"24.693503","74.670639"
LMGB,LOCM Rapid Loading System,SECR,BSP,"21.822864","83.924462"
AMPS,M/s. Adani Track Management Services Private Ltd./SJQ,SECR,BSP,"23.289603","82.880516"
WG,Wagholi,CR,NGP,"20.58227333","78.77225333"
BAYD,BAYAD                                                       ,WR,BRC,"23.219847","73.207419"
LMGT,"Private Siding, Lingaraj MGR of M/s MCL at Talcher          ",ECOR,KUR,"20.932182","85.200305"
IDR,Indi Road                                                   ,SWR,UBL,"17.211055","75.91914667"
SQS,Sigsigi                                                     ,ECR,DDU,"24.25962778","83.85403333"
MMC,Mahamandir                                                  ,NWR,JU,"26.30935278","73.03881111"
LRST,Lingaraj Spur siding No.3 of MCL,ECOR,KUR,"20.930336","85.201464"
MBNO,Military siding banar,NWR,JU,"26.33973","73.146651"
MBSJ,"M/S BHARAT STARCH INDUSTRIES, JAGADHRI                      ",NR,UMB,"30.1173","77.2877"
MCAC,"MILITARY RAMP SIDING, AMBALA CANT                           ",NR,UMB,"30.338658","76.826706"
MCSP,PURE JAMBAD A  COLLY.SDG                                    ,ER,ASN,"23.631314","87.148018"
MCYA,MILLS RAILWAY SIDING LEHREAGAGA                             ,NR,UMB,"29.938052","75.810299"
MGKS,"Food Corporation of India Grains Godown (B.G.) SDG, MGK     ",SR,TVC,"10.597339","76.208209"
MJAC,M/S. JAIPRAKASH ASSOCIATES CHUNAR                           ,NCR,PRYJ,"25.103671","82.875023"
MJBB, M/S JAI BALAJI INDUSTRIES LTD             ,SER,CKP,"22.166063","85.411922"
RKSH,Rishikesh,NR,MB,"30.10750711","78.28787285"
MCES,M/S CESC  POWER   GENERATING   STATION  BUDGE BUDGE         ,ER,SDAH,"22.492772","88.194362"
VS,VISHVAMITRI   Jn                                            ,WR,BRC,"22.28454033","73.17888867"
SAMN,Samni Jn.                                                   ,WR,BRC,"21.85267383","72.92443233"
MJPJ,Ms JHAJJAR POWER LTD SDG  SERVED BY JHARLI                  ,NWR,BKN,"28.50626","76.374378"
MOIL,BHARWALI MANGANIZE ORE SIDING                               ,SECR,NAG,"21.811629","80.199885"
GRMR,Garhi Manikpur,NR,LKO,"25.776743","81.414485"
CTZ,Chauntra Bhaterh                                            ,NR,FZR,"32.00511552","76.74627232"
BDC,Bandel Jn.,ER,HWH,"22.92268525","88.37828655"
CCIP,Cement Corporation of India Ltd.                            ,SECR,BSP,"22.029081","82.422009"
MPGC,MRB Patiala Storage Private Ltd.,NR,UMB,"30.365682","76.006783"
CTR,Chatra,ER,HWH,"24.37315667","87.84924833"
MRKS,KAPURTHALA MILITARY SIDING                                  ,NR,FZR,"31.366426","75.382304"
MRSA,AMRISTAR MILITARY SIDING                                    ,NR,FZR,"31.631752","74.858265"
MRSB,BATALA MILITARY SIDING                                      ,NR,FZR,"31.821532","75.194482"
MRSC,"MILITARY RAMP SIDING, CHANDIMANDIR                          ",NR,UMB,"30.727191","76.886959"
MRSD,DINANAGAR MILITARY SIDING,NR,JAT,"32.134629","75.467191"
MRSN,"MILITARY RAMP SIDING, NABHA                                 ",NR,UMB,"30.363915","76.146326"
UKD,Ulindakonda                                                 ,SCR,HYB,"15.65246944","77.96829167"
MRSR,RAMDAS MILITARY SIDING                                      ,NR,FZR,"31.956532","74.919863"
MRST,TARAN TARAN MILITARY SIDING                                 ,NR,FZR,"31.455611","74.932938"
MRSW,SAHNEWAL MILITARY RAMP SIDING                               ,NR,FZR,"30.837836","75.9799"
MRTU,TANDA URMAR MILITARY SIDING,NR,JAT,"31.672449","75.637865"
MSNN,Military siding Nasirabad,NWR,AII,"26.2948","74.717331"
MSPM,"STAR PAPER MILLS SIDING II, SRE                             ",NR,UMB,"29.960809","77.542019"
BHTH,BHAIROPATTI HALT                                            ,ECR,SPJ,"25.896403","86.895877"
MSRT,TANGRA MILITARY SIDING                                      ,NR,FZR,"31.576196","75.107002"
MSSL,M/S Super Smelters Limited                                  ,ER,ASN,"23.666537","87.127075"
MTSS,M/S Talwandi Sabo Power Ltd.                                ,NR,DLI,"30.017976","75.344238"
MUSG,"Ordinance Depot Siding , Mathura                            ",NCR,AGRA,"27.480025","77.672997"
APLS,Adani Power Rajasthan Limited Siding                        ,WCR,KOTA,"24.773331","76.732635"
APLU,ADANI POWER LIMITED UDUPI served by nandikoor                       ,KRCL,KAWR,"13.132679","74.806023"
APSA,M/s. Adani Ports & Special Economic Zone Ltd.(APSEZ) Port Terminal ,WR,ADI,"23.0945","70.1249"
SRE,Saharanpur Jn.                                              ,NR,UMB,"29.961335","77.54116833"
MSIR,M/S SKS Ispat & Power Ltd RSD                               ,SECR,R,"21.2375","81.6309"
RZN,Rauzagaon                                                   ,NR,LKO,"26.7863825","81.705581"
SALR,Salur,SCOR,VSKP,"18.52715667","83.20634483"
MMCT,Mumbai Central                                              ,WR,BCT,"18.97122133","72.81893283"
AKVU,Ankleshwar Udyognagar.                                      ,WR,BRC,"21.63348108","73.03409284"
MVKF,Food Corporation of India siding                            ,SR,TVC,"9.239577","76.545782"
KOPR,KOPAR,CR,CSTM,"19.21129912","73.07773513"
ANGR,Angadgeri H                                                 ,SWR,UBL,"16.45280553","75.84473498"
SBDP,SABDALPUR JN.                                               ,ECR,SEE,"25.42778333","86.43882967"
SPY,Sarsonpuri P.H.,SECR,R,"20.78114783","81.6386475"
TNUE,TINDAULI,NCR,PRYJ,"27.181386","78.916344"
SSKA,Sisarka                                                     ,NR,MB,"28.4298365","78.848284"
SKB,Shikohabad Jn.,NCR,PRYJ,"27.086095","78.57548333"
NRMH,Nava Raipur,SECR,R,"21.21810154","81.80123826"
OSBK,"old sick line, barkakana",ECR,DHN,"23.624119","85.469513"
PKRW,PAKUR  LOWER  QUARRY  LINE  NO.1                            ,ER,HWH,"24.637812","87.855864"
PKRX,PAKUR  LOWER QUARRY  LINE N0 2 SDG                          ,ER,HWH,"24.637812","87.855864"
PKRY,PAKUR NEW  SIDING  AND  RAJA  BUFFER                        ,ER,HWH,"24.637812","87.855864"
TIS,Tatisilwai                                                  ,SER,RNC,"23.37015167","85.43636667"
TNK,Tirunellikaval                                              ,SR,TPJ,"10.65341529","79.63606818"
BDVL,Budvel,SCR,HYB,"17.309775","78.42510833"
NSW,Naswadi                                                     ,WR,BRC,"22.04808431","73.73201402"
BNJN,Binjana                                                     ,WR,RTM,"22.934208","75.993407"
PCPN,M/s. Nuvoco Vistas Corporation Ltd. Served by Nipania,SECR,R,"21.826684","82.044525"
PGBB,M/s global coal & mining pvt ltd                            ,SECR,BSP,"21.827062","83.848926"
DHNE,Dhone Jn,SCOR,GTL,"15.395275","77.86770556"
NWU,Navapur                                                     ,WR,BCT,"21.166938","73.77269467"
AGAE,Agradwip,ER,HWH,"23.581725","88.225185"
DRD,Dahanu Road                                                 ,WR,BCT,"19.9913095","72.74358967"
KSC,Kashi Chak                                                  ,ECR,DNR,"25.071174","85.72006017"
PLG,Palghar                                                     ,WR,BCT,"19.69791533","72.77215967"
PKRZ,PAKUR OLD SIDING  AND  PAKUR QUARRY BUFFER                  ,ER,HWH,"24.637812","87.855864"
PLCP,PHULBASIA LINE NO.4 CCL,ECR,DHN,"23.681158","84.740124"
GPR,Ghorpuri,CR,PUNE,"18.52781133","73.8947185"
PMBR,M/s. BMM Siding Served by Ranajithpura,SWR,UBL,"15.055879","76.599255"
ATMB,"ATOMIC POWER PROJECT SIDING, TARAPUR-BOISAR",WR,BCT,"19.798237","72.761609"
PMCS,PANDRA  BR COLLY.SDG                                        ,ER,ASN,"23.751804","86.748004"
PMLR,M/S Nuvoco Vistas Corporation Limited                                 ,ER,ASN,"23.603161","87.11729"
ILO,ILLOO                                                       ,SER,RNC,"23.31765667","85.86512667"
PNKA,M/S. NARESH KUMAR & CO. PVT. LTD.(served by AMTA station),SER,KGP,"22.5709","88.0092"
PNKR,NEW KANPUR FOR DFCCIL PVT SIDING,NCR,PRYJ,"26.351085","80.437256"
RIGA,Riga                                                        ,ECR,SPJ,"26.64283282","85.42837964"
PNPS,"KERALA NEWS PRINT PROJECT SDG, PVRD                         ",SR,TVC,"9.829169","76.455231"
PNSS,NEW SUJATPUR BY DFCCIL,NCR,PRYJ,"25.605972","81.40219"
RJR,Rajaldesar                                                  ,NWR,BKN,"28.033696","74.477739"
RXR,Rangapahar,NFR,LMG,"25.83398833","93.665055"
ATX,Alinagar Tola                                               ,ECR,SPJ,"25.847273","87.328545"
ASWC,APSWC SIDING OWNED BY SRI NANDA KUMAR & OTHERS              ,SCR,SC,"17.470681","78.794525"
SR,Sabli Road                                                  ,WR,RJT,"23.03713782","71.95586421"
ATUV,M/S ATUL SIDING                                             ,WR,BCT,"20.608629","72.933599"
TK,tumakuru                                                    ,SWR,SBC,"13.333792","77.101957"
BEHR,Beohari,WCR,JBP,"24.00038583","81.37995317"
ADR,Mandi Adampur                                               ,NWR,BKN,"29.283039","75.468642"
DD,Daund Jn.,CR,PUNE,"18.46364333","74.580265"
SDN,Sholavandan                                                 ,SR,MDU,"10.02287717","77.96562283"
PNWP,PATHERDIH NLW WASHERY SIDING,ECR,DHN,"23.673615","86.433582"
PPTP,Paradeep Port Through Distance Siding                       ,ECOR,KUR,"20.280554","86.620331"
PSAD,ADRA PUBLIC SIDING,SER,ADRA,"23.495602","86.674275"
PSBP,Sonepur Bazari Siding of ECL,ER,ASN,"23.712079","87.277435"
PSBS,Private Siding to serve Bokaro Steel Ltd                    ,ECR,DHN,"24.19726","83.709984"
PSCE,PARASCOLE  E COLLY.SDG                                      ,ER,ASN,"23.615587","87.184925"
PSEC,Parasea Colliery Sdg.                                       ,ER,ASN,"23.631314","87.148018"
PSFI,"FCI SDG, GAYA                                               ",ECR,DDU,"24.804188","84.999504"
PSKS,POL SIDING KATARSINGH WALA                                  ,NR,DLI,"30.15433","75.011044"
CDQ,Chadotar                                                    ,WR,ADI,"24.1854365","72.3700095"
PSOR,PUBLIC SIDING OF RAILWAY                                    ,SER,KGP,"22.454425","86.9982"
PSPC,Punjab State Power Corporation Limited(PSPCL) served by Pakur,ER,HWH,"24.637194","87.856056"
PSPM,Sagardighi Thermal Power Plant Siding                       ,ER,MLDT,"24.351163","88.102283"
KHAT,Khat,SECR,NAG,"21.242489","79.55052983"
DBI,Dabli Rathan                                                ,NWR,BKN,"29.5427795","74.1911795"
SBO,Sabour,ER,MLDT,"25.23875167","87.04572"
PSTA,PUBLIC SIDING AT TATANAGAR,SER,CKP,"22.768672","86.200577"
KNHE,KANHE,CR,PUNE,"18.7621105","73.59437367"
BEML,BEML Nagar H ALT                                            ,SWR,SBC,"12.978797","78.241787"
RCLH,Private Siding of Ramco Cements Limited,ECOR,KUR,"20.7242","86.117053"
KRJA,Karanja,CR,BSL,"20.49159217","77.48161183"
VD,Vagdiya                                                     ,WR,RJT,"22.61480591","71.29264184"
AIG,Aigawan                                                     ,NR,MB,"27.70138567","79.9638475"
AIP,Attippattu                                                  ,SR,MAS,"13.26093289","80.28965544"
PQLB,Public Quarry Siding Bakudi Line No-1,ER,MLDT,"24.926246","87.780592"
BLGT,BALURGHAT,NFR,KIR,"25.23281667","88.75808833"
SHN,Suchan Kotli                                                ,NWR,BKN,"29.51334217","75.18276533"
RKJE,Rakhitpur                                                   ,ECR,DHN,"23.7237715","86.489639"
RCXG,RAYATWARI COLLIERY SDG.                                     ,CR,NGP,"19.959796","79.300175"
BOMK,Baroud OC Mines Siding of SECL,SECR,BSP,"21.99184","83.102474"
RDML,RAJDHAR SIDING,ECR,DHN,"23.652151","84.941225"
APRD,ASHAPURNA DEVI                                              ,SER,KGP,"21.72162333","87.63241"
WPA,West port siding                                            ,WR,ADI,"22.76410125","69.55774259"
SVH,Sonadanga                                                   ,ER,SDAH,"23.63811667","88.35347"
RSDG,RAJHARA SIDING                                              ,SECR,R,"20.586249","81.067493"
WCN,Wimco Nagar                                                 ,SR,MAS,"13.18066129","80.30596272"
SDHN,NEW SARADHANA,DFCR,WDFC,"26.37338","74.60249"
SBCT,SOUTH BALANDA COLLIERY SIDING (SPUR-1 & 2) OF MCL,ECOR,KUR,"20.932182","85.200305"
SCDS,SLEEPER CREOSOTING DEPOT RLY SDG                            ,NR,MB,"28.396535","79.371586"
SCW,SWANG WASHERY SIDING                                        ,ECR,DHN,"23.78538","85.875808"
SFHX,"SF Siding , (FCI) Harduaganj                                ",NCR,PRYJ,"28.005617","78.140945"
DUN,Duganpur                                                    ,NR,MB,"28.65615067","79.1321185"
AIT,Ait Jn.,NCR,JHS,"25.90321333","79.23008833"
BJMD,BaraJAMDA JN                                                ,SER,CKP,"22.16497573","85.40911438"
AWZ,Ahiwara                                                     ,SECR,R,"21.359785","81.413346"
RGMA,Rangamatia,ECOR,KUR,"20.91274127","85.63164647"
RGSR,RAJKOT GOODS SHED                                           ,WR,RJT,"22.2986","70.7943"
RPLW,M/S RATANINDIA POWER lTD                                    ,CR,BSL,"21.0129","77.7037"
RWGR,Rajarappa Washery                                           ,SER,RNC,"23.545891","85.697479"
SCSK,SURAKACHAR COLLIERY SIDING                                  ,SECR,BSP,"22.337374","82.712803"
SGBB,"SQT, Bhilai Marshalling Yard                                ",SECR,R,"21.202248","81.421374"
KTBR,Kasturba Nagar                                              ,SR,MAS,"13.00547543","80.24760146"
SIMN,NEW SHRIAMIRGADH,DFCR,WDFC,"24.40931","72.65078"
RSCM,RAJDHAR SILO LINE CCL SDG.,ECR,DHN,"23.652151","84.941225"
SVGA,Sivaganga                                                   ,SR,MDU,"9.8564792","78.50183359"
VKA,Verka Jn.                                                   ,NR,FZR,"31.66635317","74.93226417"
VMM,Valaramanikkam                                              ,SR,TPJ,"10.13212964","78.92322003"
DUK,Dudia                                                       ,NWR,JU,"25.936","72.904075"
ATR,Attar                                                       ,WR,RTM,"22.000944","76.204391"
BABH,Bahalba Halt,NR,DLI,"28.93150228","76.30872102"
BEW,Betavad                                                     ,WR,BCT,"21.14979617","74.886276"
BAIS,"BARPETA AGRO INFRA SIDING ( PVT/BG), SORBHOG",NFR,RNY,"26.494696","90.888691"
KSPR,Kashipura Sarar                                             ,WR,BRC,"22.11603514","73.14448219"
TKN,Tankuppa                                                    ,ECR,DHN,"24.70375198","85.11944067"
TORI,Tori                                                        ,ECR,DHN,"23.68177368","84.73993535"
DJX,Dungripali                                                  ,ECOR,SBP,"21.06110478","83.55936393"
CHAS,CHASS                                                       ,SER,ADRA,"23.68903833","86.21353333"
AJJ,Arakkonam JN                                                ,SR,MAS,"13.08138106","79.66795561"
TPGY,Tiruchchirappalli Goods                                     ,SR,TPJ,"10.796825","78.699953"
TYSG,The ramco cements ltd sdg/tulukapatti                       ,SR,MDU,"9.467519","77.936983"
UBCN,ULHAS BRIDGE CABIN                                          ,CR,CSTM,"19.240926","73.072647"
UCLH,ULTRATECH CEMENT LTD                                        ,SECR,R,"21.631899","81.845913"
UCLM,"UltraTech Cement Limited,Unit:Maihar Cement Works",WCR,JBP,"24.255925","80.763588"
UCLT,Ultra Tech Cement Ltd. Turki Served by Turki Road (TZR),WCR,JBP,"24.548919","81.117613"
SDZ,Sindhar                                                     ,NR,FZR,"31.105535","75.254674"
SEG,Shegaon,CR,BSL,"20.80118217","76.69072"
ARA,ARA JN.                                                        ,ECR,DNR,"25.54841217","84.66058033"
SELU,Selu,SCR,NED,"19.448284","76.433527"
KRKD,Karakad                                                     ,SR,PGT,"10.78080843","76.23155344"
KWR,Koelwar                                                     ,ECR,DNR,"25.569781","84.792026"
NLD,Nalanda                                                     ,ECR,DNR,"25.12287017","85.46343883"
RMGM,Ramanagaram                                                 ,SWR,SBC,"12.72064","77.28387833"
AJK,Ajakollu,SCR,HYB,"16.32991667","77.87099444"
DTJ,Detroj                                                      ,WR,ADI,"23.34015617","72.18423983"
UKA,Ukhra,ER,ASN,"23.65383167","87.232885"
SVL,Sevaliya                                                    ,WR,BRC,"22.808223","73.346844"
TLE,Talgoria                                                    ,SER,ADRA,"23.68182333","86.334935"
WJ,Walajabad                                                   ,SR,MAS,"12.79678589","79.81864846"
AKRA,Akra                                                        ,ER,SDAH,"22.51486333","88.249465"
BFT,Bhabta                                                      ,ER,SDAH,"23.98676167","88.24172833"
SVN,Sivungaon                                                   ,SCR,HYB,"19.10845","77.54459167"
BGAE,Balagarh,ER,HWH,"23.122255","88.45287167"
TUN,Tohana                                                      ,NR,DLI,"29.72661333","75.90299"
VIS,VISWESRAYA IRON and STEEL,SWR,MYS,"13.842399","75.702802"
SEX,Seroni Road,NCR,JHS,"25.94622763","76.88570337"
BNLY,Bhanupli Halt                                               ,NR,UMB,"31.29895667","76.42032667"
BNN,Barnala                                                     ,NR,UMB,"30.37112","75.55026"
DZKT,Durgachak Town                                              ,SER,KGP,"22.06645167","88.13540217"
TLC,Talchhapar                                                  ,NWR,JU,"27.825872","74.487319"
KWC,Kundwa Chainpur                                             ,ECR,SPJ,"26.77101","85.185295"
SHRM,Sharma Halt                                                 ,NR,MB,"27.59933961","80.00629253"
BGAR,Bangari                                                     ,ECR,SPJ,"26.535105","84.923605"
BVRT,Bhimavaram Town,SCOR,BZA,"16.5472835","81.51997567"
TLNH,Tilaunchi,NCR,JHS,"26.33269","80.006915"
EKI,Eklakhi,NFR,KIR,"25.16841391","88.09898565"
BGF,Bagila,ER,HWH,"23.15842251","88.12597437"
WRI,Waraseoni                                                   ,SECR,NAG,"21.7712885","80.0575065"
TVG,Tavargatti                                                  ,SWR,UBL,"15.4144573","74.66249638"
RMY,Rukmapur,SCR,SC,"17.2757723","77.6806229"
SKZR,Sirpur Kaghaznagar,SCR,SC,"19.34652204","79.48993053"
AEMD,M/s.Adani Electricity Mumbai Ltd.-Dahanu Road,WR,BCT,"19.991417","72.743568"
ULT,Kulti,ER,ASN,"23.73823398","86.84806009"
MAKP,MANIKPURA,NCR,AGRA,"26.93661599","78.39044469"
BBSB,BIJURI BALLAST SIDING                                       ,SECR,BSP,"23.250559","82.119166"
BBSD,BIRLA SUPER SIDING,SWR,SBC,"13.27921","77.55043"
BOD,Bangrod                                                     ,WR,RTM,"23.396907","75.122016"
BOE,Barsoi Jn.,NFR,KIR,"25.65072667","87.92201333"
BOKR,Bhokar                                                      ,SCR,NED,"19.21391389","77.66681667"
ULM,Urlam,SCOR,VSKP,"18.43508933","83.988997"
CHQ,Choka                                                       ,WCR,BPL,"22.86401217","77.63805633"
AJNI,Ajni,CR,NGP,"21.126945","79.082785"
BGK,Bagalkot,SWR,UBL,"16.17885667","75.69963667"
KTGG,KARATAGI,SWR,UBL,"15.619606","76.677768"
ALAU,ALAU                                                        ,WR,BVP,"22.21022014","71.6883118"
AFSD,AIR FORCE SIDING DIGARU (BG)                                ,NFR,LMG,"26.173156","91.977711"
SWE,Siwaith                                                     ,NR,LKO,"25.5772965","81.86963017"
PPI,Pipariya,WCR,JBP,"22.75380996","78.35441633"
KZC,Kulukkallur                                                 ,SR,PGT,"10.85904846","76.24318652"
RPB,Rupasibari,NFR,LMG,"24.85492333","92.52882167"
SXX,Salbari,NFR,APDJ,"26.54563667","89.10400278"
TLHR,Talcher                                                     ,ECOR,KUR,"20.93212983","85.20039167"
TOM,Tondamanpatti                                               ,SR,TPJ,"10.78613138","78.82287959"
IPCD,M/s Indian Port Rail Corporation Limited Dry-Port,SCR,NED,"19.8297","75.88"
VMP,Vallampadugai                                               ,SR,TPJ,"11.34994722","79.70806667"
SIA,Shivalakha                                                  ,WR,ADI,"23.38417833","70.62505283"
VP,Virapur,SCOR,GTL,"15.15870555","77.13139673"
BCPL,BRAHMAPUTRA CRACKER&POLYMER Ltd.(P) SIDING                  ,NFR,TSK,"27.362","94.8754"
BCRB,BIJURI COLLERY SIDING                                       ,SECR,BSP,"23.250559","82.119166"
ALJ,Aliganj,NER,IZN,"29.11417667","78.919915"
BOM,Bomadra                                                     ,NWR,JU,"25.78072222","73.43846667"
SMD,Cheranmahadevi                                              ,SR,MDU,"8.67904517","77.56171433"
KTU,Kuttippuram                                                 ,SR,PGT,"10.84599218","76.03302513"
SHWL,Sahuwala,NWR,BKN,"29.35310083","73.82132767"
GNGR,Gungrana Halt                                               ,NR,UMB,"30.71607667","75.82606167"
SEQ,Sekha                                                       ,NR,UMB,"30.37999667","75.64377667"
ARNA,Arniya                                                      ,NWR,JP,"27.01063158","76.51770726"
MARD,Mavur Road                                                  ,SR,TPJ,"10.69007222","79.62871389"
SIRL,SHIRALA,CR,BSL,"21.13014521","77.72302589"
RGI,Ramagiri                                                    ,SWR,MYS,"13.94822","76.12580167"
SIW,Shiravde,CR,PUNE,"17.36074967","74.15786433"
BCHR,Bachar                                                      ,WR,BRC,"21.95201876","73.1640767"
SJN,Sanjan                                                      ,WR,BCT,"20.19217817","72.821237"
THS,Thansit,CR,CSTM,"19.55055903","73.35212616"
TWL,Tilwara                                                     ,NWR,JU,"25.88608889","72.10903056"
SNKR,Sanka                                                       ,SER,ADRA,"23.52778333","86.61682667"
LAP,Lohapur,ER,HWH,"24.302245","87.962415"
AIIW,Ajmer Workshops                                             ,NWR,AII,"26.4573","74.6459"
YLG,Yalvigi                                                     ,SWR,UBL,"15.03792667","75.40795"
TKR,Takari,CR,PUNE,"17.13275923","74.35865117"
BGNR,B.G.NAGAR                                                   ,SWR,SBC,"12.968594","76.73322"
SSL,Sirsaul,NCR,PRYJ,"26.29585667","80.46416"
BDLC,Bonidanga Link Cabin                                        ,ER,MLDT,"24.82182157","87.79847905"
VRM,Varnama                                                     ,WR,BRC,"22.18784","73.170971"
TKMG,TIKAMGARH,NCR,JHS,"24.76683833","78.84044667"
WWA,Vavaniya                                                    ,WR,RJT,"23.00541761","70.61432297"
MDVR,Madhavnagar,CR,PUNE,"16.88649654","74.57550872"
AAY,Aralvaymoli                                                 ,SR,TVC,"8.248028","77.52775733"
MDW,Marwar Mundwa                                               ,NWR,JU,"27.06378611","73.81572778"
SKKE,Sekerkote,NFR,LMG,"23.74374667","91.27755833"
AS,Arjansar                                                    ,NWR,BKN,"28.93209","73.871563"
MCLE,Manchili,SCOR,BZA,"16.66320567","81.61417067"
SGAM,Saraigram,WCR,JBP,"24.0323245","82.1951215"
SKT,Sakti,SECR,BSP,"22.01186192","82.95531192"
ASCE,Athsarai,NCR,PRYJ,"25.67887","81.26225"
SHMI,Shiroor                                                     ,KRCL,KAWR,"13.93095278","74.59396389"
AAS,Asaranada                                                   ,NWR,JU,"26.39761667","73.30586111"
SL,Surathkal                                                   ,KRCL,KAWR,"12.99023889","74.80548889"
SSM,Sasaram                                                     ,ECR,DDU,"24.95648056","84.01886667"
AKL,Anakhol                                                     ,WR,ADI,"23.2763812","72.41008124"
TKRP,Tikauli Rawatpur                                            ,NR,LKO,"26.39864444","80.61436389"
TRK,Tirukkovilur                                                ,SR,TPJ,"11.97587778","79.22361667"
WZJ,Wazerganj                                                   ,ECR,DNR,"24.81301833","85.224914"
TNW,Thaparnagar,ER,ASN,"23.76895741","86.70071364"
BGWI,BEGDEWADI,CR,PUNE,"18.700603","73.708777"
YLK,Yellakaru,SCOR,GTL,"13.84657063","79.64951491"
AKTS,AMARKANTAK THERMAL PWR STN                                  ,SECR,BSP,"23.173189","81.593227"
BHGP,Bhagirathpur (Halt),NER,LJN,"27.29764209","83.38783144"
CNE,Chandranathpur,NFR,LMG,"24.96267","92.68772333"
BDVS,MYSORE PAPER MILLS LTD,SWR,MYS,"13.842399","75.702802"
BDYD,BHILAI DEPARTURE YARD                                       ,SECR,R,"21.2022","81.4214"
AMP,Ahamadpur Jn.,ER,HWH,"23.83240785","87.69295499"
MDF,Muradi,SER,ADRA,"23.59325333","86.809455"
YPR,Yesvantpur Jn.                                              ,SWR,SBC,"13.04016667","77.54376111"
YT,Yevat,CR,PUNE,"18.48929183","74.25628533"
SLB,Salboni                                                     ,SER,ADRA,"22.64060167","87.32141667"
SQN,Sarai Kansrai                                               ,NR,LKO,"25.51636519","82.34532862"
DFR,Deogan Road                                                 ,ECOR,SBP,"20.55509867","83.4300485"
RKI,Ramkanali Jn.                                               ,SER,ADRA,"23.57902333","86.76182167"
TKP,Takipur,ER,HWH,"24.30537833","87.90663"
LKBL,Lakhabawal                                                  ,WR,RJT,"22.409038","69.99990983"
YTG,Yeshwantnagar                                               ,SWR,UBL,"15.03871","76.502965"
URK,Urkura,SECR,R,"21.29720217","81.651116"
ABB,Abada                                                       ,SER,KGP,"22.54776917","88.19958667"
BHM,Bahram                                                      ,NR,FZR,"31.19571783","75.90162717"
BKRL,Bakrol                                                      ,WR,BRC,"22.587925","73.419181"
SLI,Sangli,CR,PUNE,"16.85848904","74.58806145"
BKRO,BOKARO THERMAL,ECR,DHN,"23.78648467","85.87988667"
DHMA,Dhamarda                                                    ,WR,RTM,"22.85394667","74.30371667"
LKD,Lakodra                                                     ,WR,BRC,"21.98138633","73.09466617"
SGRP,Singhirampur Halt,NER,IZN,"27.22977217","79.64025367"
ALUM,The ramco cements ltd sdg/alu                               ,SR,TPJ,"11.150235","79.068518"
SGRR,Sangar,NR,JAT,"32.80475547","75.05012301"
CIRL,chirula,NCR,JHS,"25.58362833","78.483695"
TTP,Tiruturaipundi Jn.                                          ,SR,TPJ,"10.53853463","79.63493113"
VVD,Vavdi                                                       ,WR,BVP,"21.71879479","70.75285036"
ACRN,achirne,KRCL,RN,"16.44677907","73.74389806"
HIPR,Haripar,WR,ADI,"22.99199807","71.52029462"
ANR,Anara                                                       ,SER,ADRA,"23.48137333","86.56030333"
AMBH,Aghwanpur Block Hut                                         ,NR,MB,"28.95911217","78.685501"
AMBR,Ambika Rohina                                        ,SCR,SC,"18.44223","76.9444011"
MNMA,Mandan Mishra,ECR,SPJ,"26.21422231","86.18522225"
RLT,Ralapet                                                     ,SCR,SC,"19.31866603","79.43232749"
NPHR,New Pandharpavani                                           ,SCR,SC,"19.75991584","79.30213492"
SLO,Samalkot Jn.,SCOR,BZA,"17.04521033","82.1691475"
STPD,Sitafal Mandi                                               ,SCR,HYB,"17.427236","78.520469"
BDN,Bhadan                                                      ,NCR,PRYJ,"26.979305","78.73745333"
WFD,Whitefield                                                  ,SWR,SBC,"12.99597","77.761653"
ABGT,ARABAGATTA HALT                                             ,SWR,MYS,"13.894261","76.138108"
BDSW,Budhsinghwala                                               ,NWR,BKN,"29.8326045","74.22228317"
AMLS,GCT Multi-Modal CG TML of M/s Arya Multilogistics Pvt Ltd-Surbari,WR,ADI,"23.286054","70.612263"
BHTA,Bhatiya                                                     ,WR,RJT,"22.08876145","69.28078462"
AMSC,Mysore Cements Siding S/B AMSA,SWR,MYS,"13.264821","76.711736"
AMX,Amla Khurd Halt                                             ,SCR,NED,"21.509805","76.650757"
TKUR,TAPPA KHAJURIA,NER,LJN,"27.58071367","80.776168"
TPB,Trilokpur (Halt),NER,LJN,"27.50669685","82.70874265"
NPR,Nepalganj Road,NER,LJN,"28.01143","81.6015525"
BKSL,BIKRAMSHILA,ER,MLDT,"25.29993833","87.30079833"
DPW,Dhapewara P.H.,SECR,NAG,"21.872481","80.191332"
AMOD,Amod                       ,WR,BRC,"21.99068924","72.86568488"
ADD,Adas Road                                                   ,WR,BRC,"22.487113","73.033981"
KPRD,Kalyanpur Road,ER,MLDT,"25.25405333","86.61002833"
SRKN,Sherekan                                                    ,NWR,BKN,"29.55544733","74.434041"
ANDB,Ammunition Depot                                            ,WCR,KOTA,"27.236697","77.488203"
TMS,Tumsar Town P.H.                                                 ,SECR,NAG,"21.38336533","79.74143517"
KH,Kahilia                                                     ,NR,MB,"27.77493317","79.95989767"
TPND,TALOJE PANCHNAND,CR,CSTM,"19.07921133","73.0880705"
VHGN,Wihirgaon                                                   ,SCR,SC,"19.7254179","79.44147732"
LLJ,Lalganj                                                     ,NR,LKO,"26.17215","80.97363889"
SIDG,SIDDAPUR GRAMA,SWR,UBL,"15.522403","76.639761"
AUWA,Auwa                                                        ,NWR,AII,"25.66114444","73.56194167"
RMAR,Ram Mandir                                                  ,WR,BCT,"19.15114083","72.8503345"
BDY,Buddireddipatti                                             ,SR,SA,"12.04627385","78.3137985"
BHCL,Bahora Chandil                                              ,ECR,DNR,"25.36609817","83.49556783"
BSKO,Banskho                                                     ,NWR,JP,"26.85738463","76.16861007"
CGF,Charali,NFR,TSK,"27.448092","95.3508574"
SMLA,Samlaya Jn.                                                 ,WR,BRC,"22.48449411","73.30236216"
DI,Dombivli,CR,CSTM,"19.21818756","73.08682196"
NGLT,Nagla Tula,NCR,AGRA,"26.92708948","77.43149557"
BGTE,BAGAHATI                                                    ,ER,HWH,"22.98465018","88.38808879"
FNO,FUNGO HALT                                                  ,ECR,SPJ,"25.61872167","86.60437833"
GSI,Ghosi  HALT,NER,BSB,"26.11936132","83.54471161"
DUMK,Dumka,ER,ASN,"24.28976333","87.255405"
LATH,Lath Halt                                                   ,NR,DLI,"29.0631285","76.78893283"
MGLP,Mangolpuri                                                  ,NR,DLI,"28.682925","77.10024667"
NPSB,M/S Nabha Power Ltd.Siding                                  ,NR,UMB,"30.538016","76.515312"
AJE,Anjar                                                       ,WR,ADI,"23.11946217","70.03647833"
HPKB,M/s Hindustan Petroleum Corporation Ltd.,ER,SDAH,"22.4967","88.2023"
TRB,Tiruverumbur                                                ,SR,TPJ,"10.78723846","78.77906929"
VMU,Vemuru,SCOR,GNT,"16.177747","80.742644"
RMSR,Ramsinghpur                                                 ,NWR,BKN,"29.17455467","73.375038"
NPV,Narpatganj                                                  ,ECR,SPJ,"26.3398894","87.11173695"
BSIP,"BHAVNAGAR SALT INDUSTRIES LTD. SDG, BHAVNAGAR               ",WR,BVP,"21.781818","72.141209"
BHV,Bhoma,SECR,NAG,"22.171205","79.689667"
ARIS,"M/S,AMTEK RAIL CAR INDUSTRIES PVT.LTD.                      ",NR,UMB,"30.58044","76.451454"
BGKT,Bhagat-ki-Kothi                                             ,NWR,JU,"26.25081111","73.01443333"
BGL,Bagula                                                      ,ER,SDAH,"23.335435","88.64598167"
BHUJ,BHUJ                                                        ,WR,ADI,"23.26603352","69.68135255"
BHEH,"BHEL SIDING, HARDWAR                                        ",NR,MB,"29.948167","78.155279"
BHES,BHARATH HEAVY ELECTRICALS SIDING                            ,SR,MAS,"12.977628","79.289017"
BKIT,binkadakatti                                                ,SWR,UBL,"15.43689183","75.59607617"
MICL,MICO  USERS  TEX  MACO  SDG                                 ,ER,SDAH,"22.698921","88.382263"
DMW,Dalmau Jn.,NR,LKO,"26.07633333","81.05375556"
MGT,Magra Hat                                                   ,ER,SDAH,"22.24123777","88.37271749"
PDSN,Peddasana p.h,SCOR,VSKP,"18.5940645","84.1858845"
APRH,ALEHPUR HALT,NER,BSB,"26.19305782","84.79999303"
SER,Samayanallur                                                ,SR,MDU,"9.9822175","78.03386167"
SNSL,Sonshelu                                                    ,WR,BCT,"21.26752683","74.6723705"
BONA,Boinda                                                      ,ECOR,SBP,"20.91770147","84.75714535"
KTHA,Khutaha,WCR,JBP,"24.80756133","80.86079117"
CHC,CHANCHAI (H),ER,HWH,"23.15815833","88.025985"
ABO,Asthal Bohar                                                ,NR,DLI,"28.85718667","76.63126667"
KHRJ,Kumbhraj,WCR,BPL,"24.362471","77.07904417"
TMX,Timmapur                                                    ,SCR,HYB,"17.16899167","78.28881111"
AHZ,Adhinpur                                                    ,NR,LKO,"26.41859444","81.72673611"
AVDT,Tube Products of India Siding                               ,SR,MAS,"13.118017","80.100288"
BLV,Bhelwa                                                      ,ECR,SPJ,"26.99534333","84.77161833"
VYA,Vyara                                                       ,WR,BCT,"21.117952","73.38566167"
BVL,Bikkavolu,SCOR,BZA,"16.96919033","82.03178633"
BXY,Bordhai,CR,NGP,"21.997825","78.34844833"
BSPR,Bishrampur,SECR,BSP,"23.17898796","82.98256371"
MKIK,m/S KRIBHCO INFRASTRUCTURE LTD SIDING SERVED BY KOSAD       ,WR,BRC,"21.16942","72.69743"
BRPT,Birapatti                                                   ,NR,LKO,"25.40631183","82.91293617"
NPZ,Nawapatra B.H.,ER,ASN,"24.31031667","86.64375833"
BY,Byculla,CR,CSTM,"18.97672085","72.8328205"
BI,Bari Sadri,NWR,AII,"24.41220559","74.46912915"
SNT,Sainthia JN,ER,HWH,"23.95144424","87.68100667"
ARAG,Arag,CR,SUR,"16.82265667","74.78813833"
NR,Niphad,CR,BSL,"20.09698083","74.0800145"
ARCL,Arunachal,NFR,LMG,"24.85557833","92.74288833"
AVL,Amritvel                                                    ,WR,BVP,"21.07649683","71.66157117"
BDHL,Badhal                                                      ,NWR,JP,"27.25145204","75.45092326"
BYN,Banahi                                                      ,ECR,DNR,"25.56141217","84.39018017"
KTES,Katni  South JUNCTION,WCR,JBP,"23.8168905","80.40056517"
DDJ,DUMDUM JN.                                                  ,ER,SDAH,"22.62099667","88.393065"
SANR,Sardarnagar  F,NER,BSB,"26.67391622","83.54524737"
MHPR,Mahiyarpur,NFR,KIR,"25.389175","87.619975"
SWRT,Sahawar Town,NER,IZN,"27.78907667","78.83259833"
BYO,Bayaluvaddigeri                                             ,SWR,UBL,"15.22986167","76.53582167"
TVL,Tadwal                                                      ,SWR,UBL,"17.393265","75.97579333"
THO,Tulin                                                       ,SER,RNC,"23.37872951","85.90196833"
TY,Tulukapati                                                  ,SR,MDU,"9.45912133","77.9334885"
DMYA,Damay,WCR,JBP,"23.97134867","80.99772833"
AGDL,Agran Dhulgaon                                              ,CR,SUR,"16.95498667","74.921755"
BYR,Bhayandar                                                   ,WR,BCT,"19.3103155","72.85291483"
SPYA,Sipaya (Halt),NER,BSB,"26.55823062","84.33052287"
BYXA,Betgara,NFR,APDJ,"26.59986667","88.85961389"
LKNR,Lakhpat Nagar,NER,LJN,"27.02742251","82.2793488"
PFU,Padua,ECOR,RGDA,"18.398084","82.6889345"
ADST,Adi Saptagram,ER,HWH,"22.95447667","88.37914333"
ALEU,"ALEMBIC CHEMICAL WORKS SDG, VADODRA JN.                     ",WR,BRC,"22.310696","73.181005"
PTP,Patal Pani                                                  ,WR,RTM,"22.51407733","75.79709483"
CHM,Chalthan                                                    ,WR,BCT,"21.1574875","72.9564455"
MHQ,Mahuda Jn                                                   ,SER,ADRA,"23.74737833","86.270425"
SID,Siddhapur                                                   ,WR,ADI,"23.91856935","72.36794249"
BID,Bidadi                                                      ,SWR,SBC,"12.80052333","77.39037333"
SKA,Sikandra Rao,NER,IZN,"27.68452833","78.38883"
SNTH,Sonthaliya                                                  ,NWR,JP,"27.4115742","75.51588007"
NRCC,NORTH RAMGARH SIDING                                        ,ECR,DHN,"23.730041","85.583153"
THN,Tolahunse                                                   ,SWR,MYS,"14.39969667","75.96474667"
TMR,Tumsar Road                                                 ,SECR,NAG,"21.341996","79.75123867"
BBNB,Bogibeel Bridge North Block Hut,NFR,TSK,"27.56329492","94.66591063"
BIG,Belgahna,SECR,BSP,"22.43103659","82.03220384"
AVRD,Aravali Road                                                ,KRCL,RN,"17.31667028","73.53824167"
BDXT,Basai Dhankot                                               ,NR,DLI,"28.46448","76.98306333"
DEOR,Diyodar                                                     ,WR,ADI,"24.11241833","71.76940667"
LUSA,Lusa                                                        ,NCR,PRYJ,"24.87632","82.84285333"
ALGV,GCT Multi-model Cargo Terminal of M/s Adani Logi Ltd.-Virochannagar,WR,ADI,"23.042931","72.264977"
ALJN,Aligarh Jn.,NCR,PRYJ,"27.88874333","78.07463"
BCSB,BURHAR COLLIERY                                             ,SECR,BSP,"23.212794","81.527996"
CAI,Chanpatia                                                   ,ECR,SPJ,"26.94183181","84.53080617"
DIVA,Diva,CR,CSTM,"19.18880101","73.0425474"
NTG,Nusratabad Kharkhari Halt,NR,DLI,"28.77532167","77.307625"
DJHR,Deojhar                                                     ,SER,CKP,"22.08056367","85.47744496"
MAYR,Mayar                                                       ,NWR,BKN,"29.10011467","75.8606525"
AYRN,AKSHAYWAT RAI NAGAR                                         ,ECR,SEE,"25.6884478","85.31414244"
SCA,Salchapra,NFR,LMG,"24.82501333","92.667715"
TKC,Thakurkuchi,NFR,LMG,"26.23354","91.922205"
SKSO,Sikosa P.H.,SECR,R,"20.86867767","81.28605067"
RUPC,Rudrapur City,NER,IZN,"28.96957833","79.37967333"
BDGN,Bhandegaon                                                  ,CR,BSL,"20.341655","77.697742"
BEHI,BENNEHALLI                                                  ,SWR,MYS,"14.78746167","76.11914667"
BFM,Bhalui                                                      ,ECR,DNR,"25.03580233","86.19943817"
CAS, Chas Road  PH                                              ,SER,ADRA,"23.41909833","86.21475167"
MFKA,Musafirkhana                                                ,NR,LKO,"26.37945733","81.799757"
TYMR,Tiruvanmiyur                                                ,SR,MAS,"12.98954609","80.25120317"
NTT,Nathapettai                                                 ,SR,MAS,"12.82384167","79.75591333"
SSR,Sareri                                                      ,NWR,AII,"25.69778889","74.62438333"
TLV,Talvadya  JUNCTION,WCR,BPL,"21.9277505","76.44461217"
CAR,Chunar Jn.,NCR,PRYJ,"25.103455","82.87186167"
TRA,Tangra                                                      ,NR,FZR,"31.57232917","75.12188183"
CAPC,Chatrapur Court  Ph                                         ,ECOR,KUR,"19.35931983","84.98279333"
CASA,Chhansara                                                   ,WR,ADI,"23.767422","71.2753545"
BDB,Vrindavan,NCR,AGRA,"27.57637333","77.69400667"
AZK,Azhwarkurichi                                               ,SR,MDU,"8.78738767","77.37650317"
CIL,Chilbila Jn.                                                ,NR,LKO,"25.94679783","82.004157"
NZD,Nuzvid,SCOR,BZA,"16.65037","80.96217"
TIBI,Tibi                                                        ,NWR,BKN,"29.542927","74.50176733"
YL,Yeola                                                       ,CR,PUNE,"20.022655","74.49642333"
PDG,Paradgaon Halt,SCR,NED,"19.62153333","76.15727778"
BFX,Baghi Ghauspur                                              ,ECR,DNR,"25.04877433","85.67951633"
BGZ,Bahadurgarh                                                 ,NR,DLI,"28.70146667","76.93048167"
DGA,Dighwara                                                    ,ECR,SEE,"25.7441845","85.0036"
RAKD,RADHAKUND,NCR,AGRA,"27.53955469","77.52141182"
PNGI,Panangudi                                                   ,SR,MDU,"9.92118133","78.61268017"
KHDB,Khodiyar                                                    ,WR,ADI,"23.15587467","72.547953"
SLIA,SALAIYA,ECR,DHN,"24.20916511","86.25686584"
TII,Tingrai,NFR,TSK,"27.45829254","95.55989734"
MIPM,MARRIPALEM PH,SCOR,VSKP,"17.736457","83.25258267"
VPJ,Vaiyampatti                                                 ,SR,MDU,"10.54321117","78.30860217"
SLKX,Salakati,NFR,APDJ,"26.44284633","90.35401584"
ALK,Alakkudi                                                    ,SR,TPJ,"10.77743889","79.05290833"
SMLG,Shimiliguda,ECOR,RGDA,"18.3025775","82.95416067"
UGD,Uppugunduru,SCOR,BZA,"15.6497065","80.1934045"
AMS,Amausi                                                      ,NR,LKO,"26.77479033","80.8418005"
CDGR,Chandrakona Road                                            ,SER,ADRA,"22.73979333","87.34111333"
CDL,Chodiala                                                    ,NR,MB,"29.89588296","77.7374115"
BHPI,Bichhupali,ECOR,SBP,"20.73557972","83.61618765"
DRHI,Dagar Khedi,WCR,BPL,"22.08178167","76.8267795"
ALS,Amlori Sarsar,NER,BSB,"26.29113167","84.34640137"
BAHW,Bahir Khanda,ER,HWH,"22.85354","88.06772333"
BHSA,BHISA HALT                                                  ,ECR,SPJ,"26.576232","85.534573"
SLN,Sultanpur Jn.                                               ,NR,LKO,"26.26475133","82.066688"
FL,Phulera Jn.                                                 ,NWR,JP,"26.87359222","75.24577229"
SGLM,Sengulam,SR,TVC,"8.60682283","77.6827975"
ANPR,Anpara                                                      ,ECR,DHN,"24.21654881","82.76607417"
APH,Anupgarh                                                    ,NWR,BKN,"29.196989","73.204717"
BGMN,NEW BANGURGRAM,DFCR,WDFC,"26.143649","74.352318"
BAAR,BANDAR PH                                                   ,SER,KGP,"22.05297417","88.0885565"
VDS,Vidyasagar,ER,ASN,"24.08295167","86.70423167"
CJ,Kanchipuram                                                 ,SR,MAS,"12.84841218","79.70510793"
BIRA,Bira                                                        ,ER,SDAH,"22.78999023","88.57267454"
MAUR,Maur                                                        ,NR,DLI,"30.06270167","75.22825167"
DMZ,Dumdangi,NFR,KIR,"26.47712746","88.29611547"
OPM,ONNUPURAM H                                                 ,SR,TPJ,"12.71148836","79.18038122"
PNBE,PATNA Jn.                                                   ,ECR,DNR,"25.60303605","85.1368954"
CHBS,Chaubisi                                                    ,NR,LKO,"26.57672222","81.43443333"
KWDP,Kakdwip                                                     ,ER,SDAH,"21.88054333","88.19403833"
SSKL,Suskal,WR,BRC,"22.31396983","73.8026175"
RJS,Rajiyasar                                                   ,NWR,BKN,"29.06752267","73.8422205"
SPPR,Shudnipur                                                   ,NR,LKO,"25.62625067","82.64056567"
BGVN,Bhigwan,CR,SUR,"18.31709","74.774745"
CJR,CHAMARAJ                                                    ,WR,RJT,"22.73706079","71.5616071"
CKN,Chintakani,SCR,SC,"17.12395385","80.2031458"
DRI,Dumri Juara                                                 ,ECR,SEE,"25.74898125","84.8704748"
BGPR,Bhagwanpura                                                 ,NWR,AII,"25.40784104","73.35430062"
VNE,Vishwanath Charali,NFR,RNY,"26.76972831","93.16531963"
FSR,Faqarsar                                                    ,NR,UMB,"30.19004","74.57928"
ASKR,Ashoknagar Road                                             ,ER,SDAH,"22.82659833","88.62848333"
SLWR,Silawar                                                     ,NR,DLI,"29.50518","77.34462333"
BGX,Bagri Sajjanpur                                             ,NWR,AII,"25.91848611","73.82423333"
SPR,Sonarpur Jn.                                                ,ER,SDAH,"22.4430665","88.43047399"
LKN,Lakhminia                                                   ,ECR,SEE,"25.42607583","86.30973383"
APN,Ayodhyapattanam,SR,SA,"11.67169538","78.23441991"
BHAW,BLOCK HUT 'A' (BHA)                                         ,NR,LKO,"26.8062965","80.9786405"
CBN,Chit Baragaon,NER,BSB,"25.74473849","84.00271826"
PTYR,Patiyara                                                    ,NR,MB,"26.61323012","80.48218867"
RMB,Rampura Beri                                                ,NWR,BKN,"28.530074","75.645979"
ARI,Antri,NCR,JHS,"26.03528333","78.22728667"
CIO,Chikhli Road                                                ,WR,BCT,"20.80639933","73.0747355"
CHE,Srikakulam Road,SCOR,VSKP,"18.40883","83.90344333"
KTAI,Kattalli,SCR,SC,"17.72569641","77.12111494"
TKPY,Turkapalli,SCOR,GTL,"15.0838565","77.62743433"
BEI,shivamogga bidare                                           ,SWR,MYS,"13.90354333","75.64314778"
SPRM,Sitapuram Ph,ECOR,RGDA,"18.81537383","83.98231883"
TKQ,Trikarpur                                                   ,SR,PGT,"12.14406222","75.17568336"
URD,Untari Road                                                 ,ECR,DDU,"24.33872778","83.840475"
ANSB,Anandpur Sahib                                              ,NR,UMB,"31.229775","76.50034167"
ANT,ANANTNAG,NR,JAT,"33.73850533","75.107164"
CBR,Chaubepur,NER,IZN,"26.61643333","80.19556"
CIT,Chitali                                                     ,CR,PUNE,"19.691045","74.62375"
CJL,Chajli                                                      ,NR,UMB,"30.04320833","75.81261667"
DNWH,DANIYAWAN BAZAR HALT                                        ,ECR,DNR,"25.43436433","85.291153"
DRO,Daryaoganj,NER,IZN,"27.59800333","79.08267167"
RFJ,Rafiganj                                                    ,ECR,DDU,"24.81981389","84.63454167"
MFZ,Malahar,NFR,KIR,"25.3042002","87.95865413"
RGA,Rajagoda                                                    ,SER,KGP,"22.3244695","87.8665985"
SMCK,Shyam Chak                                                  ,SER,KGP,"22.36353783","87.50090617"
BHOI,dhandari kalan block hut                                    ,NR,FZR,"30.89426389","75.87164444"
SMCP,SIMEN CHAPARI,NFR,TSK,"27.72367837","94.88689569"
BNGD,Boisar New Goods shed                                       ,WR,BCT,"19.798237","72.761609"
AVC,Amaravathi colony                                           ,SWR,MYS,"14.49862667","75.85200833"
COE,Chitrod                                                     ,WR,ADI,"23.43719917","70.6659775"
KUCH,KUCHAVARAM HALT                                             ,SCR,HYB,"17.73132778","78.4571"
AUR,Atrauli Road                                                ,NR,MB,"28.0958695","78.21903967"
DOB,Dundlod Mukandgarh                                          ,NWR,JP,"27.93878685","75.23715678"
PYA,Pedapariya                                                  ,SR,MAS,"14.0211167","79.87521727"
CCR,CHINCHURIYA,ER,ASN,"23.73853929","86.96784067"
SXE,Sila Kheri                                                  ,NR,DLI,"29.38911167","76.60967333"
TKT,Tikkotti                                                    ,SR,PGT,"11.49144605","75.62586669"
CLA,Kurla Jn.,CR,CSTM,"19.06531798","72.8793323"
GBG,Gobordanga                                                  ,ER,SDAH,"22.87978667","88.76100833"
CRG,Churaman Nagri,WCR,KOTA,"27.39578167","77.61277833"
BHUL,BHAULI                                                      ,NR,DLI,"29.30472906","76.36231679"
SMM,Saliyamangalam                                              ,SR,TPJ,"10.77953056","79.2759"
MHRG,Mahendragarh                                                ,NWR,BKN,"28.28111933","76.14828333"
BNPD,BANK NOTE PRESS SIDING DEWAS                                ,WR,RTM,"22.977676","76.051311"
BNRN,BAGDOGRA MILITARY SIDING                                    ,NFR,KIR,"26.664373","88.374496"
ACK,Acharapakkam,SR,MAS,"12.40690868","79.82189587"
BIB,Birpur,NCR,JHS,"26.13444958","77.13692078"
BETI,Bhetasi                                                     ,WR,BRC,"22.42028525","73.03112224"
CBSA,Chaibasa                                                    ,SER,CKP,"22.55909137","85.81194231"
AMQ,Ammuguda Halt,SCR,HYB,"17.48646611","78.52718773"
SMND,Sarmatanr                                                   ,ECR,DHN,"24.344115","85.65778683"
LIN,LINGAMGUNTLA HALT                                           ,SCR,GNT,"16.44030971","80.274608"
PYI,Payli                                                       ,NWR,BKN,"28.060751","74.56389967"
AHN,Ahiran H,ER,MLDT,"24.51845167","88.04159667"
RPH,Rampur Hat,ER,HWH,"24.17878733","87.7815683"
BIS,Biswa Bridge,CR,BSL,"20.88547717","76.339209"
MOTC,Motichur                                                    ,NR,MB,"29.980808","78.177368"
SNA,Sadanapura                                                  ,WR,BRC,"22.60020943","73.01095235"
RAMA,Ramva                                                       ,NCR,PRYJ,"25.890585","80.85308333"
RMD,Ramanathapuram,SR,MDU,"9.35951333","78.8343165"
SWNI,Siwani                                                      ,NWR,BKN,"28.9152805","75.60458283"
CID,Chiraidongri,SECR,NAG,"22.41134533","80.28736133"
UTA,Umar Tali                                                   ,NR,MB,"27.08628717","80.47311017"
BIRT,BIRATOLI,ECR,DHN,"23.72281389","84.77810556"
BIV,Bamhani Banjar P.H.,SECR,NAG,"22.47817749","80.36260358"
UTP,Utri Pura,NER,IZN,"26.74021667","80.09601"
AEP,Amreli Para                                                 ,WR,BVP,"21.58917633","71.21272167"
RBL,Rae Bareli Jn.                                              ,NR,LKO,"26.23247778","81.23928056"
NROB,NEW RAJANAGAR OPEN CAST MINES                               ,SECR,BSP,"23.250559","82.119166"
CHR,Chilkahar,NER,BSB,"25.8271244","83.96486367"
BIF,Bhaironpur                                                  ,WCR,BPL,"22.440614","77.41900067"
GDA,Godhra Jn.                                                  ,WR,BRC,"22.77640084","73.60606159"
AGAS,Agas                                                        ,WR,BRC,"22.501957","72.88398"
SWW,Shahanagar Timarua,NCR,PRYJ,"27.41450167","78.257595"
BJ,Bahjoi,NR,MB,"28.40067517","78.630234"
MSH,Mahesana Jn.                                                ,WR,ADI,"23.601799","72.3890405"
RR,Richha Road,NER,IZN,"28.71399667","79.48831167"
DL,Daladi                                                      ,WR,RJT,"22.5850441","71.06959536"
VG,Viramgam Jn.                                                ,WR,ADI,"23.12789033","72.05355533"
SNDD,Sindhudurg                                                  ,KRCL,RN,"16.11141389","73.67969722"
VEL,Vellanur                                                    ,SR,MDU,"10.46766967","78.79691167"
AKR,Akolner                                                     ,CR,PUNE,"18.98384","74.66852333"
SNDT,Sindri Town                                                 ,ECR,DHN,"23.661468","86.48022917"
DOLK,Dholikuva                                                   ,WR,BCT,"20.830731","73.2123365"
PPN,PUNPUN                                                      ,ECR,DNR,"25.48869533","85.0994725"
BPAG,"Bharat Petroleum  Ltd., ASOTI                               ",NR,DLI,"28.251318","77.324009"
BPAJ,M/S BPCL SIDING,NWR,JP,"26.900208","75.424256"
PPU,Piparpur                                                    ,NR,LKO,"26.15147388","82.04175849"
BFW,Byatrayanahalli                                             ,SWR,SBC,"12.99546833","78.017295"
AKP,Anakapalle,SCOR,BZA,"17.69498565","83.00762389"
TKBG,Teka Bigha ,ECR,DNR,"25.46462268","85.48896004"
CDMA,Chandeshwarsthan                                            ,ECR,SPJ,"26.3331999","86.31073829"
BAE,Baliakheri                                                  ,NR,MB,"29.92864771","77.63373347"
BPCK,BPCL SIDING   KATIHAR                                       ,NFR,KIR,"25.548637","87.566099"
CNA,Chanderiya                                                  ,WR,RTM,"24.93815333","74.62918466"
BPAL,M/s BPCL PRIVATE SIDING,CR,PUNE,"18.46305","74.064309"
GDBR,Goonda (Bihar)                                              ,SER,RNC,"22.99611555","86.09370724"
KRGA,Kuranga                                                     ,WR,RJT,"22.06177912","69.17525496"
MK,Miranpur Katra                                              ,NR,MB,"28.0368305","79.67508117"
SNP,Sonipat,NR,DLI,"28.98939667","77.01686"
LKMR,Lakshmipur Road,ECOR,RGDA,"19.00330267","83.1040185"
DOX,Dohna,NER,IZN,"28.455905","79.4387"
BPII,Bye Pass II                                                 ,SCR,SC,"19.77494","79.40548"
PUDI,Pudi                                                        ,SR,MAS,"13.55317739","79.50806722"
BPKR,BPC LTD SIDING (BG) - KHARI ROHAR ROAD                      ,WR,ADI,"23.03","70.22"
AZP,Ayyampet HALT                                                    ,SR,TPJ,"10.89670556","79.20748889"
GGO,Goram Ghat                                                  ,NWR,AII,"25.64149844","73.86727988"
BPOI,BHARAT PETROLEUM CORPORATION LTD. PRIVATE SIDING,SR,SA,"11.016899","77.068834"
CNDI,CHANDI HALT                                                 ,ECR,DNR,"25.32195","85.39004533"
VMA,Vikramgarh Alot,WCR,KOTA,"23.76485667","75.53839167"
BKEC,Inward yard 'E' Cabin of M/s. BSL                           ,SER,ADRA,"23.656711","86.085176"
SMP,Shambhupara                                                 ,WR,RTM,"24.77082333","74.64211667"
LXD,Lakshannath Road                                            ,SER,KGP,"21.84043917","87.25070917"
TPNR,Transport Nagar                                             ,NR,LKO,"26.77744467","80.9026135"
PUF,Pauta (Halt),NER,IZN,"28.52437361","79.82210551"
SNKB,Sonkhamb,CR,NGP,"21.27638889","78.73626111"
ASR,Amritsar Jn.                                                ,NR,FZR,"31.63402555","74.86711457"
MLI,Mangaliyawas                                                ,NWR,AII,"26.28038056","74.49494167"
MNGD,Muniguda                                                    ,ECOR,SBP,"19.62674464","83.48904971"
MLGH,Mandalgarh,WCR,KOTA,"25.19411617","75.08105333"
BIC,Bichia,NER,LJN,"28.306313","81.154191"
CHPT,Chatrapatti                                                 ,SR,MDU,"10.47808696","77.65788989"
CTHR,Chitahra,WCR,JBP,"24.87095867","80.838126"
BKPL,BAKHTIYARPUR LINK,ECR,DNR,"25.45421257","85.57484639"
BAGA,Bhagega                                                     ,NWR,JP,"27.67719657","75.7210708"
ALU,Ariyalur                                                    ,SR,TPJ,"11.14916111","79.06842778"
DPP,Dhirpur                                                     ,NR,DLI,"30.066565","76.84420833"
FBD,Farrukhabad Jn.,NER,IZN,"27.382085","79.57135167"
MNE,Mansi Jn.                                                   ,ECR,SEE,"25.50894322","86.55442446"
SFDE,Safidon                                                     ,NR,DLI,"29.39766","76.66194333"
SOPR,Sonma Pranpur  F                                            ,ECR,SPJ,"25.632325","86.225162"
SBBP,sardar ballabh bhai patel halt,ECR,SPJ,"26.465841","86.386588"
BRCB,Baroda C. B.                                                ,WR,BRC,"22.658151","73.086757"
SXK,Shahjahanpur Kutchery Halt                                  ,NR,MB,"27.88943767","79.91564283"
TPK,Tipkai,NFR,APDJ,"26.28750167","90.03239722"
VKH,Vikhran Road                                                ,WR,BCT,"21.29524367","74.62944733"
AMH,Azamgarh,NER,BSB,"26.03912966","83.16191924"
BAT,Batala Jn.,NR,FZR,"31.821628","75.19447217"
CKU,Chakulia                                                    ,SER,KGP,"22.47830417","86.72149617"
MRKL,Marikal                                                     ,SCR,HYB,"16.59508093","77.72864361"
SOW,Sohsarai,ECR,DNR,"25.231608","85.5382635"
TPKR,Tikiapara                                                   ,SER,KGP,"22.5990485","88.32480467"
PNI,Puraini                                                     ,NR,MB,"29.38943483","78.44605267"
AMRI,ANAJMANDI REWARI                                            ,NWR,JP,"28.18372288","76.60552967"
BC,Bareilly City,NER,IZN,"28.35735667","79.401665"
PXR,Palpara                                                     ,ER,SDAH,"23.05922541","88.52065168"
SRGP,Saragipali                                                  ,ECOR,SBP,"20.98223323","84.56747856"
BDYK,Bindayaka                                                   ,NWR,JP,"26.92357204","75.65157539"
BLLT,BALLUPET                                                    ,SWR,MYS,"12.95819333","75.88316"
MNR,Makkhanpur,NCR,PRYJ,"27.1152","78.48312167"
SASN,SAHIBZADA AJITSINGH NAGAR(MOHALI)                           ,NR,UMB,"30.66576883","76.73976333"
SQR,Sultanpur Lodi                                              ,NR,FZR,"31.21095167","75.20251383"
TIA,Tilaiya                                                     ,ECR,DNR,"24.82264617","85.40349583"
UCP,Uchippuli                                                   ,SR,MDU,"9.30802933","79.014625"
PYM,Pandiyapuram                                                ,SR,MDU,"8.86269788","77.93687782"
CTTP,Chitrapur (H)                                               ,KRCL,KAWR,"14.03572524","74.53604011"
MRPL,Marampalli                                                  ,SCR,BZA,"16.84375602","81.63363671"
ANJ,Anjangaon,CR,BSL,"21.16327267","77.318904"
APE,Andanapettai                                                ,SR,TPJ,"10.75349444","79.82150278"
BJM,Bhagavathipuram                                             ,SR,MDU,"9.0170005","77.19684483"
CKX,Chakur,SCR,SC,"18.48774868","76.88441658"
GHL,GolLAhalli,SWR,SBC,"13.145556","77.417363"
DANE,Danre,ER,MLDT,"24.72413167","87.06957667"
CNL,Chandawal                                                   ,NWR,AII,"25.94536667","73.86695833"
TRAN,Torang                                                      ,SER,RNC,"23.27125","85.85888"
BROL,POL SDG. FOR M/S BPCL                                       ,CR,NGP,"20.860476","78.974748"
SGUT,Siliguri Town,NFR,KIR,"26.70554189","88.43133309"
BRPN,BONGAIGAON REFINERY & PETROCHEMICAL P LTD                   ,NFR,RNY,"26.474415","90.536098"
GAO,Gaigaon,CR,BSL,"20.72071267","76.890237"
TSAH,Tatasigua                                                   ,SER,ADRA,"23.77461754","86.33174497"
APMR,Appaipalli,SCR,HYB,"17.8560542","78.56974503"
BAK,Bhan Kari                                                   ,NWR,JP,"26.96244706","76.40937662"
BLSG,BOKARO STEEL LTD SIDING KHBJ                                ,WCR,JBP,"23.896667","80.822296"
GHT,Ghaghara Ghat,NER,LJN,"27.10216284","81.50315988"
BRRB,Bargawan railway Coal Siding,WCR,JBP,"24.197182","82.456169"
SRBH,Shahid Ramphal Balhara Halt,NR,DLI,"28.89534182","76.4681792"
MNTT,Mulanturtti                                                 ,SR,TVC,"9.8976755","76.39057667"
MOTG,Motiganj,NER,LJN,"27.09656703","82.11554379"
VLDE,Valadi                                                      ,SR,TPJ,"10.8726031","78.75786292"
ARGD,Arigada                                                     ,ECR,DHN,"23.64429583","85.468152"
BM,Bodma                                                       ,ER,ASN,"23.90010643","86.84987377"
BALR,Baitalpur,NER,BSB,"26.552111","83.73782404"
NRSR,Numaligarh Refinery Oil (Pvt/BG) Siding                     ,NFR,KIR,"26.664373","88.374496"
RMPR,RAMPUR  HALT,ER,MLDT,"25.17150833","86.141635"
RMO,Ramakona                                                    ,SECR,NAG,"21.70330733","78.8576225"
DGG,Dongargarh,SECR,NAG,"21.18542317","80.7610355"
SRB,Sarobag,ER,MLDT,"25.27801167","86.48033194"
SRNK,Soron Shukar Kshetra,NER,IZN,"27.88390333","78.74941667"
SVNR,Savanur                                                     ,SWR,UBL,"14.96294667","75.40717833"
MSF,Chennai Fort                                                ,SR,MAS,"13.08289407","80.28242227"
BEHS,Bihar Sharif jn.                                            ,ECR,DNR,"25.2041485","85.53955317"
DHY,Dharodi                                                     ,NR,DLI,"29.63974667","76.056"
BMCO,M/s. balaji movers & siding pvt. ltd. of gcto,SWR,SBC,"13.346087","77.541302"
TIR,Tirur                                                       ,SR,PGT,"10.917438","75.92226595"
COL,Coromandal,SWR,SBC,"12.9756","78.257783"
ASAR,ASRA HALT,NR,DLI,"29.24941667","77.29169167"
ASB,Asanboni                                                    ,SER,CKP,"22.70538612","86.3213909"
BAPN,BARAIPURA  HALT                                             ,ECR,SPJ,"25.738642","86.140893"
BGAN,Bangain,NER,LJN,"27.27209249","81.87830035"
BJU,Barauni Jn.                                                 ,ECR,SEE,"25.46174533","85.98907383"
GBQ,Godbhaga                                                    ,ECOR,SBP,"21.4157126","83.8545445"
BSCN,BHUSAWAL C CABIN                                            ,CR,BSL,"21.044142","75.827764"
SHNR,Shadnagar                                                   ,SCR,HYB,"17.06483889","78.21329444"
STDR,Satadhar                                                    ,WR,BVP,"21.283621","70.7210735"
CLHT,Chuletha,WCR,BPL,"23.95251149","78.02288504"
CPD,Chinchpada                                                  ,WR,BCT,"21.19123717","73.91995017"
DHT,Dhamara Ghat                                                ,ECR,SPJ,"25.59093667","86.5994"
BARL,Baral                                                       ,NR,MB,"28.4962575","77.80991017"
SCPD,Suchipind Halt                                              ,NR,FZR,"31.334922","75.61804033"
BSPB,BARH SUPER THERMAL POWER PROJECT                            ,ECR,DNR,"25.46172","85.709496"
SRBR,Surbari                                                     ,WR,ADI,"23.2303435","70.69770117"
DIA,Didwana                                                     ,NWR,JU,"27.40612778","74.55772222"
SVV,Srivaikuntam                                                ,SR,MDU,"8.62272267","77.9058625"
TTQ,Thathankulam.                                               ,SR,MDU,"8.62985783","77.8409655"
SY,Sirkazhi                                                    ,SR,TPJ,"11.24294167","79.72808611"
GDV,Gudivada Jn.,SCOR,BZA,"16.4308325","80.9879115"
BDBP,Basudebpur H,ER,MLDT,"24.6354","87.98350333"
KXB,Kanjiya,WCR,BPL,"24.351759","78.16433767"
BGN,Borgaon,CR,BSL,"20.72882683","77.18109817"
BJUD,Bajud                                                       ,WR,BVP,"21.73595517","71.82922283"
MTD,Merta Road Jn.                                              ,NWR,JU,"26.72803611","73.91831944"
MTE,Mettur                                                      ,SR,MDU,"8.8732385","77.36997333"
RMX,Ramsar                                                      ,NWR,JU,"25.72380278","70.87710556"
RNH,Runkhera                                                    ,WR,RTM,"23.41429667","75.189295"
CMBR,Chembur,CR,CSTM,"19.06261039","72.90036241"
DIB,Dibai                                                       ,NR,MB,"28.19529883","78.30445567"
SKEN,SUKHSHENA HALT                                              ,ECR,SPJ,"25.794445","87.116215"
MJT,Majherhat                                                   ,ER,SDAH,"22.51917","88.32208"
MTH,Mataundh,NCR,JHS,"25.41976833","80.15119"
BTPK,NEW BG BTPS(Bellary Thermal Power Station) siding,SWR,UBL,"15.21504","76.763449"
AYN,Aiyanapuram HALT,SR,TPJ,"10.78784112","78.93873845"
RNRD,Ranipur Road,NCR,JHS,"25.27294833","79.03651667"
BH,Bharuch Jn.                                                 ,WR,BRC,"21.70333018","72.99960308"
BHI,Baheri,NER,IZN,"28.77885","79.500695"
